,SUICIDES,MUNCOD,MUNNOME,LATITUDE,LONGITUDE
0,3,110001,Alta Floresta D'Oeste,-11.929,-61.996
1,10,110002,Ariquemes,-9.913,-63.041
2,14,110004,Cacoal,-11.438,-61.448
3,1,110005,Cerejeiras,-13.189,-60.812
4,2,110006,Colorado do Oeste,-13.117,-60.542
5,2,110009,Espigão D'Oeste,-11.525,-61.013
6,5,110010,Guajará-Mirim,-10.783,-65.339
7,3,110011,Jaru,-10.439,-62.466
8,3,110012,Ji-Paraná,-10.882,-61.944
9,1,110014,Nova Brasilândia D'Oeste,-11.725,-62.331
10,3,110015,Ouro Preto do Oeste,-10.716,-62.248
11,4,110018,Pimenta Bueno,-11.673,-61.193
12,36,110020,Porto Velho,-8.762,-63.904
13,1,110025,Presidente Médici,-11.176,-61.901
14,6,110028,Rolim de Moura,-11.733,-61.778
15,6,110030,Vilhena,-12.741,-60.146
16,2,110033,Nova Mamoré,-10.411,-65.331
17,1,110037,Alto Alegre dos Parecis,-12.128,-61.851
18,1,110040,Alto Paraíso,-9.713,-63.321
19,1,110050,Novo Horizonte do Oeste,-11.71,-62.0
20,1,110060,Cacaulândia,-10.34,-62.896
21,2,110070,Campo Novo de Rondônia,-10.571,-63.627
22,2,110080,Candeias do Jamari,-8.791,-63.701
23,1,110092,Chupinguaia,-12.552,-60.9
24,1,110094,Cujubim,-9.363,-62.585
25,1,110149,São Francisco do Guaporé,-12.062,-63.569
26,1,110160,Theobroma,-10.244,-62.355
27,2,120013,Bujari,-9.831,-67.952
28,6,120020,Cruzeiro do Sul,-7.631,-72.67
29,2,120025,Epitaciolândia,-11.029,-68.741
30,4,120030,Feijó,-8.164,-70.354
31,1,120033,Mâncio Lima,-7.614,-72.896
32,5,120034,Manoel Urbano,-8.839,-69.26
33,29,120040,Rio Branco,-9.975,-67.81
34,1,120045,Senador Guiomard,-10.151,-67.736
35,6,120050,Sena Madureira,-9.066,-68.657
36,4,120060,Tarauacá,-8.161,-70.766
37,3,120070,Xapuri,-10.652,-68.504
38,1,120080,Porto Acre,-9.588,-67.533
39,1,130002,Alvarães,-3.221,-64.804
40,4,130006,Amaturá,-3.364,-68.198
41,2,130014,Apuí,-7.197,-59.891
42,4,130020,Atalaia do Norte,-4.372,-70.192
43,2,130040,Barcelos,-0.975,-62.924
44,1,130050,Barreirinha,-2.793,-57.07
45,10,130060,Benjamin Constant,-4.383,-70.031
46,1,130068,Boa Vista do Ramos,-2.97,-57.59
47,2,130070,Boca do Acre,-8.752,-67.398
48,2,130100,Carauari,-4.883,-66.896
49,1,130115,Careiro da Várzea,-3.221,-59.826
50,1,130120,Coari,-4.085,-63.141
51,7,130140,Eirunepé,-6.66,-69.874
52,2,130150,Envira,-7.433,-70.023
53,1,130160,Fonte Boa,-2.514,-66.092
54,2,130170,Humaitá,-7.506,-63.021
55,2,130180,Ipixuna,-7.051,-71.695
56,2,130185,Iranduba,-3.285,-60.186
57,2,130190,Itacoatiara,-3.143,-58.444
58,2,130195,Itamarati,-6.425,-68.253
59,1,130210,Japurá,-1.826,-66.599
60,1,130220,Juruá,-3.481,-66.069
61,2,130230,Jutaí,-2.747,-66.767
62,2,130240,Lábrea,-7.259,-64.798
63,3,130250,Manacapuru,-3.3,-60.621
64,90,130260,Manaus,-3.102,-60.025
65,1,130290,Maués,-3.384,-57.719
66,2,130310,Nova Olinda do Norte,-3.888,-59.094
67,5,130340,Parintins,-2.628,-56.736
68,1,130353,Presidente Figueiredo,-2.034,-60.025
69,1,130360,Santa Isabel do Rio Negro,-0.414,-65.019
70,6,130370,Santo Antônio do Içá,-3.102,-67.94
71,20,130380,São Gabriel da Cachoeira,-0.13,-67.089
72,1,130390,São Paulo de Olivença,-3.378,-68.873
73,14,130406,Tabatinga,-4.253,-69.938
74,2,130410,Tapauá,-5.628,-63.183
75,3,130420,Tefé,-3.354,-64.711
76,1,130430,Urucará,-2.536,-57.76
77,5,140002,Amajari,3.652,-61.371
78,3,140005,Alto Alegre,2.98,-61.292
79,24,140010,Boa Vista,2.82,-60.673
80,4,140015,Bonfim,3.36,-59.833
81,2,140017,Cantá,2.61,-60.597
82,5,140030,Mucajaí,2.43,-60.9
83,2,140045,Pacaraima,4.431,-61.146
84,1,140047,Rorainópolis,0.946,-60.418
85,2,140060,São Luiz,1.005,-60.159
86,2,140070,Uiramutã,4.596,-60.168
87,3,150010,Abaetetuba,-1.718,-48.883
88,1,150040,Alenquer,-1.942,-54.738
89,3,150050,Almeirim,-1.523,-52.582
90,16,150060,Altamira,-3.203,-52.206
91,13,150080,Ananindeua,-1.366,-48.372
92,1,150090,Augusto Corrêa,-1.022,-46.645
93,1,150095,Aurora do Pará,-2.134,-47.563
94,1,150120,Baião,-2.791,-49.672
95,3,150130,Barcarena,-1.506,-48.626
96,41,150140,Belém,-1.456,-48.504
97,1,150145,Belterra,-2.636,-54.937
98,3,150170,Bragança,-1.063,-46.773
99,2,150172,Brasil Novo,-3.262,-52.668
100,2,150178,Breu Branco,-4.009,-49.461
101,6,150180,Breves,-1.682,-50.48
102,1,150195,Cachoeira do Piriá,-1.671,-46.529
103,6,150210,Cametá,-2.244,-49.496
104,2,150215,Canaã dos Carajás,-6.497,-49.878
105,1,150220,Capanema,-1.196,-47.181
106,11,150240,Castanhal,-1.297,-47.922
107,3,150270,Conceição do Araguaia,-8.258,-49.265
108,1,150280,Curralinho,-1.814,-49.795
109,1,150285,Curuá,-1.888,-55.117
110,2,150293,Dom Eliseu,-4.285,-47.505
111,3,150295,Eldorado dos Carajás,-6.104,-49.355
112,2,150304,Floresta do Araguaia,-7.554,-49.713
113,2,150320,Igarapé-Açu,-1.127,-47.618
114,1,150345,Ipixuna do Pará,-2.558,-47.494
115,1,150350,Irituia,-1.769,-47.439
116,13,150360,Itaituba,-4.276,-55.984
117,1,150375,Jacareacanga,-6.224,-57.754
118,2,150380,Jacundá,-4.451,-49.116
119,3,150390,Juruti,-2.152,-56.092
120,1,150405,Mãe do Rio,-2.06,-47.553
121,21,150420,Marabá,-5.369,-49.118
122,2,150440,Marapanim,-0.714,-47.694
123,5,150442,Marituba,-1.355,-48.342
124,3,150460,Mocajuba,-2.584,-49.507
125,1,150470,Moju,-1.884,-48.769
126,3,150480,Monte Alegre,-2.008,-54.069
127,4,150495,Nova Esperança do Piriá,-2.269,-46.966
128,1,150500,Nova Timboteua,-1.206,-47.386
129,3,150503,Novo Progresso,-7.147,-55.382
130,2,150506,Novo Repartimento,-4.331,-49.796
131,3,150520,Oeiras do Pará,-2.003,-49.854
132,1,150530,Oriximiná,-1.766,-55.866
133,1,150543,Ourilândia do Norte,-6.755,-51.084
134,1,150548,Pacajá,-3.838,-50.638
135,2,150550,Paragominas,-2.995,-47.353
136,8,150553,Parauapebas,-6.068,-49.902
137,1,150560,Peixe-Boi,-1.192,-47.314
138,1,150565,Placas,-3.868,-54.22
139,1,150580,Portel,-1.936,-50.821
140,5,150613,Redenção,-8.029,-50.031
141,2,150616,Rio Maria,-7.311,-50.048
142,2,150618,Rondon do Pará,-4.776,-48.067
143,9,150650,Santa Isabel do Pará,-1.299,-48.161
144,1,150660,Santa Maria do Pará,-1.352,-47.576
145,1,150670,Santana do Araguaia,-9.505,-50.625
146,23,150680,Santarém,-2.443,-54.708
147,2,150710,São Caetano de Odivelas,-0.75,-48.02
148,1,150715,São Domingos do Araguaia,-5.538,-48.733
149,1,150720,São Domingos do Capim,-1.675,-47.775
150,4,150730,São Félix do Xingu,-6.645,-51.995
151,2,150740,São Francisco do Pará,-1.169,-47.795
152,1,150745,São Geraldo do Araguaia,-6.401,-48.555
153,1,150747,São João de Pirabas,-0.769,-47.174
154,4,150760,São Miguel do Guamá,-1.627,-47.483
155,4,150795,Tailândia,-2.947,-48.953
156,1,150797,Terra Santa,-2.104,-56.487
157,2,150803,Tracuateua,-1.072,-46.897
158,1,150805,Trairão,-4.574,-55.944
159,1,150808,Tucumã,-6.748,-51.161
160,7,150810,Tucuruí,-3.768,-49.673
161,2,150812,Ulianópolis,-3.756,-47.501
162,4,150815,Uruará,-3.718,-53.737
163,1,150820,Vigia,-0.858,-48.142
164,1,150830,Viseu,-1.197,-46.14
165,2,160015,Pedra Branca do Amapari,0.778,-51.944
166,2,160027,Laranjal do Jari,-0.842,-52.516
167,32,160030,Macapá,0.039,-51.066
168,2,160040,Mazagão,-0.115,-51.289
169,1,160050,Oiapoque,3.843,-51.835
170,1,160053,Porto Grande,0.713,-51.413
171,5,160060,Santana,-0.058,-51.182
172,3,170100,Ananás,-6.366,-48.073
173,1,170130,Aragominas,-7.162,-48.528
174,1,170200,Araguaçu,-12.931,-49.826
175,16,170210,Araguaína,-7.191,-48.207
176,1,170215,Araguanã,-6.581,-48.644
177,2,170240,Arraias,-12.931,-46.938
178,1,170290,Axixá do Tocantins,-5.617,-47.769
179,2,170610,Cristalândia,-10.6,-49.193
180,1,170650,Darcinópolis,-6.713,-47.76
181,1,170700,Dianópolis,-11.628,-46.821
182,2,170710,Divinópolis do Tocantins,-9.8,-49.214
183,1,170740,Esperantina,-5.343,-48.511
184,1,170820,Formoso do Araguaia,-11.797,-49.529
185,2,170830,Goianorte,-8.776,-48.932
186,1,170900,Goiatins,-7.71,-47.314
187,2,170930,Guaraí,-8.834,-48.51
188,13,170950,Gurupi,-11.729,-49.069
189,1,171050,Itacajá,-8.392,-47.768
190,1,171070,Itaguatins,-5.768,-47.481
191,1,171090,Itapiratins,-8.384,-48.111
192,3,171190,Lagoa da Confusão,-10.794,-49.624
193,1,171195,Lagoa do Tocantins,-10.378,-47.551
194,1,171320,Miracema do Tocantins,-9.567,-48.392
195,1,171330,Miranorte,-9.529,-48.59
196,1,171395,Muricilândia,-7.147,-48.611
197,3,171420,Natividade,-11.71,-47.723
198,1,171510,Novo Acordo,-9.963,-47.677
199,1,171515,Novo Alegre,-12.931,-46.574
200,1,171575,Palmeirópolis,-13.044,-48.402
201,8,171610,Paraíso do Tocantins,-10.176,-48.867
202,1,171620,Paranã,-12.615,-47.883
203,1,171650,Pedro Afonso,-8.968,-48.175
204,3,171750,Pium,-10.443,-49.182
205,4,171820,Porto Nacional,-10.708,-48.417
206,2,171875,Rio Sono,-9.344,-47.902
207,1,171886,Santa Fé do Araguaia,-7.157,-48.721
208,1,171890,Santa Rosa do Tocantins,-11.449,-48.121
209,1,172000,Santa Terezinha do Tocantins,-6.434,-47.673
210,1,172025,São Salvador do Tocantins,-12.744,-48.236
211,1,172030,São Sebastião do Tocantins,-5.257,-48.2
212,2,172049,São Valério da Natividade,-11.975,-48.234
213,19,172100,Palmas,-10.167,-48.333
214,2,172120,Tocantinópolis,-6.329,-47.416
215,1,172208,Wanderlândia,-6.849,-47.963
216,3,210005,Açailândia,-4.947,-47.505
217,1,210030,Aldeias Altas,-4.628,-43.471
218,1,210043,Alto Alegre do Maranhão,-4.213,-44.446
219,1,210050,Alto Parnaíba,-9.111,-45.93
220,1,210060,Amarante do Maranhão,-5.567,-46.742
221,1,210070,Anajatuba,-3.264,-44.62
222,2,210095,Arame,-4.733,-45.908
223,4,210120,Bacabal,-4.225,-44.78
224,1,210125,Bacabeira,-2.971,-44.316
225,1,210130,Bacuri,-1.703,-45.134
226,4,210140,Balsas,-7.533,-46.036
227,4,210150,Barão de Grajaú,-6.756,-43.024
228,5,210160,Barra do Corda,-5.506,-45.243
229,2,210200,Bom Jardim,-3.565,-45.994
230,1,210203,Bom Jesus das Selvas,-4.42,-46.765
231,3,210210,Brejo,-3.684,-42.75
232,1,210215,Brejo de Areia,-4.334,-45.581
233,2,210220,Buriti,-3.942,-42.925
234,4,210230,Buriti Bravo,-5.837,-43.834
235,1,210232,Buriticupu,-4.346,-46.401
236,1,210240,Cajapió,-2.881,-44.675
237,1,210255,Campestre do Maranhão,-6.172,-47.364
238,1,210275,Capinzal do Norte,-4.728,-44.327
239,2,210280,Carolina,-7.333,-47.469
240,1,210290,Carutapera,-1.195,-46.02
241,9,210300,Caxias,-4.859,-43.356
242,1,210310,Cedral,-2.0,-44.536
243,2,210312,Central do Maranhão,-2.199,-44.826
244,2,210320,Chapadinha,-3.742,-43.36
245,6,210330,Codó,-4.455,-43.886
246,1,210340,Coelho Neto,-4.257,-43.013
247,1,210350,Colinas,-6.026,-44.249
248,4,210360,Coroatá,-4.13,-44.124
249,1,210370,Cururupu,-1.828,-44.868
250,2,210375,Davinópolis,-5.558,-47.426
251,2,210380,Dom Pedro,-5.033,-44.436
252,2,210400,Esperantinópolis,-4.883,-44.688
253,1,210405,Estreito,-6.561,-47.451
254,2,210407,Feira Nova do Maranhão,-6.96,-46.686
255,2,210409,Formosa da Serra Negra,-6.435,-46.191
256,1,210420,Fortuna,-5.733,-44.158
257,1,210440,Gonçalves Dias,-5.151,-44.299
258,2,210455,Governador Edison Lobão,-5.749,-47.361
259,1,210467,Governador Nunes Freire,-2.126,-45.885
260,6,210480,Grajaú,-5.819,-46.139
261,1,210520,Igarapé Grande,-4.585,-44.853
262,21,210530,Imperatriz,-5.526,-47.476
263,2,210535,Itaipava do Grajaú,-5.145,-45.791
264,2,210540,Itapecuru Mirim,-3.393,-44.359
265,3,210542,Itinga do Maranhão,-4.45,-47.526
266,2,210547,Jenipapo dos Vieiras,-5.371,-45.636
267,3,210560,Joselândia,-4.967,-44.7
268,2,210570,Lago da Pedra,-4.57,-45.132
269,1,210580,Lago do Junco,-4.609,-45.049
270,1,210590,Lago Verde,-3.957,-44.822
271,1,210594,Lago dos Rodrigues,-4.609,-44.98
272,1,210598,Lajeado Novo,-6.189,-47.035
273,2,210637,Maranhãozinho,-2.241,-45.851
274,1,210650,Matinha,-3.101,-45.034
275,1,210660,Matões,-5.519,-43.199
276,1,210670,Mirador,-6.371,-44.363
277,1,210675,Miranda do Norte,-3.569,-44.584
278,3,210700,Montes Altos,-5.831,-47.067
279,1,210730,Nova Iorque,-6.734,-44.044
280,1,210735,Nova Olinda do Maranhão,-2.847,-45.695
281,3,210740,Olho d'Água das Cunhãs,-4.139,-45.12
282,1,210745,Olinda Nova do Maranhão,-2.998,-44.997
283,5,210750,Paço do Lumiar,-2.532,-44.108
284,2,210760,Palmeirândia,-2.645,-44.895
285,4,210770,Paraibano,-6.433,-43.984
286,1,210800,Pastos Bons,-6.602,-44.077
287,5,210820,Pedreiras,-4.574,-44.597
288,2,210825,Pedro do Rosário,-2.973,-45.349
289,2,210845,Peritoró,-4.383,-44.333
290,2,210850,Pindaré-Mirim,-3.608,-45.343
291,2,210860,Pinheiro,-2.521,-45.083
292,1,210870,Pio XII,-3.894,-45.17
293,1,210880,Pirapemas,-3.727,-44.223
294,2,210910,Presidente Dutra,-5.29,-44.49
295,1,210923,Presidente Médici,-2.387,-45.82
296,2,210927,Presidente Sarney,-2.591,-45.364
297,1,210930,Presidente Vargas,-3.407,-44.024
298,4,210950,Riachão,-7.362,-46.617
299,2,210955,Ribamar Fiquene,-5.93,-47.384
300,2,210960,Rosário,-2.934,-44.235
301,2,210970,Sambaíba,-7.14,-45.346
302,4,210980,Santa Helena,-2.231,-45.3
303,5,210990,Santa Inês,-3.667,-45.38
304,2,211000,Santa Luzia,-4.069,-45.69
305,1,211003,Santa Luzia do Paruá,-2.629,-45.773
306,1,211020,Santa Rita,-3.144,-44.326
307,1,211050,São Bento,-2.696,-44.821
308,2,211060,São Bernardo,-3.361,-42.418
309,2,211070,São Domingos do Maranhão,-5.576,-44.385
310,1,211080,São Félix de Balsas,-7.083,-44.813
311,1,211100,São João Batista,-2.955,-44.807
312,1,211107,São João do Soter,-5.114,-43.81
313,4,211110,São João dos Patos,-6.495,-43.702
314,10,211120,São José de Ribamar,-2.562,-44.054
315,40,211130,São Luís,-2.53,-44.303
316,3,211140,São Luís Gonzaga do Maranhão,-4.38,-44.67
317,2,211150,São Mateus do Maranhão,-4.04,-44.47
318,2,211170,São Vicente Ferrer,-2.894,-44.88
319,1,211210,Timbiras,-4.255,-43.941
320,13,211220,Timon,-5.094,-42.837
321,1,211223,Trizidela do Vale,-4.538,-44.628
322,1,211227,Tufilândia,-3.729,-45.554
323,1,211230,Tuntum,-5.258,-44.649
324,2,211240,Turiaçu,-1.663,-45.372
325,2,211260,Urbano Santos,-3.208,-43.404
326,1,211270,Vargem Grande,-3.543,-43.916
327,1,211280,Viana,-3.22,-45.004
328,3,211290,Vitória do Mearim,-3.462,-44.871
329,5,211300,Vitorino Freire,-4.282,-45.251
330,6,211400,Zé Doca,-3.243,-45.824
331,1,220010,Agricolândia,-5.799,-42.669
332,1,220020,Água Branca,-5.89,-42.638
333,2,220030,Alto Longá,-5.251,-42.21
334,6,220040,Altos,-5.039,-42.461
335,6,220050,Amarante,-6.241,-42.855
336,1,220090,Aroazes,-6.119,-41.793
337,1,220105,Assunção do Piauí,-5.864,-41.049
338,1,220110,Avelino Lopes,-10.137,-43.949
339,1,220115,Baixa Grande do Ribeiro,-7.85,-45.214
340,2,220120,Barras,-4.247,-42.296
341,1,220160,Beneditinos,-5.455,-42.36
342,1,220170,Bertolínia,-7.641,-43.951
343,1,220177,Boa Hora,-4.411,-42.086
344,2,220190,Bom Jesus,-9.074,-44.359
345,1,220198,Brejo do Piauí,-8.214,-42.826
346,1,220200,Buriti dos Lopes,-3.175,-41.867
347,1,220202,Buriti dos Montes,-5.312,-41.098
348,1,220210,Campinas do Piauí,-7.66,-41.882
349,1,220211,Campo Alegre do Fidalgo,-8.376,-41.836
350,1,220217,Campo Largo do Piauí,-3.812,-42.629
351,13,220220,Campo Maior,-4.828,-42.169
352,1,220225,Canavieira,-7.688,-43.721
353,5,220230,Canto do Buriti,-8.11,-42.944
354,1,220245,Capitão Gervásio Oliveira,-8.49,-41.82
355,1,220253,Caraúbas do Piauí,-3.476,-41.843
356,4,220260,Castelo do Piauí,-5.322,-41.553
357,1,220273,Coivaras,-5.094,-42.207
358,1,220275,Colônia do Gurguéia,-8.182,-43.792
359,1,220280,Conceição do Canindé,-7.878,-41.597
360,2,220290,Corrente,-10.443,-45.162
361,1,220300,Cristalândia do Piauí,-10.653,-45.185
362,1,220320,Curimatá,-10.036,-44.306
363,1,220325,Curralinhos,-5.583,-42.778
364,2,220340,Dom Expedito Lopes,-6.959,-41.641
365,1,220345,Dom Inocêncio,-9.002,-41.974
366,1,220350,Elesbão Veloso,-6.202,-42.14
367,1,220360,Eliseu Martins,-8.097,-43.664
368,7,220370,Esperantina,-3.902,-42.234
369,6,220390,Floriano,-6.767,-43.023
370,1,220455,Guaribas,-9.398,-43.687
371,1,220465,Ilha Grande,-2.858,-41.821
372,5,220470,Inhuma,-6.668,-41.708
373,1,220480,Ipiranga do Piauí,-6.828,-41.741
374,4,220490,Isaías Coelho,-7.738,-41.676
375,1,220520,Jaicós,-7.359,-41.138
376,1,220527,Jatobá do Piauí,-4.771,-41.818
377,1,220530,Jerumenha,-7.088,-43.51
378,4,220550,José de Freitas,-4.756,-42.576
379,2,220556,Lagoa do Barro do Piauí,-8.478,-41.527
380,2,220580,Luzilândia,-3.458,-42.37
381,1,220600,Marcos Parente,-7.121,-43.894
382,2,220620,Miguel Alves,-4.166,-42.895
383,1,220630,Miguel Leão,-5.681,-42.739
384,2,220650,Monsenhor Hipólito,-6.996,-41.03
385,2,220660,Monte Alegre do Piauí,-9.754,-45.304
386,3,220700,Oeiras,-7.025,-42.131
387,1,220720,Padre Marcos,-7.355,-40.904
388,1,220730,Paes Landim,-7.778,-42.256
389,1,220750,Palmeirais,-5.978,-43.063
390,7,220770,Parnaíba,-2.905,-41.777
391,2,220780,Paulistana,-8.144,-41.15
392,1,220785,Pavussu,-7.966,-43.223
393,6,220790,Pedro II,-4.425,-41.459
394,1,220793,Pedro Laurentino,-8.068,-42.285
395,2,220795,Nova Santa Rita,-8.087,-42.052
396,19,220800,Picos,-7.077,-41.467
397,1,220810,Pimenteiras,-6.245,-41.419
398,2,220820,Pio IX,-6.838,-40.579
399,4,220830,Piracuruca,-3.928,-41.709
400,8,220840,Piripiri,-4.273,-41.777
401,3,220865,Queimada Nova,-8.579,-41.419
402,1,220870,Redenção do Gurguéia,-9.487,-44.586
403,1,220900,Rio Grande do Piauí,-7.775,-43.142
404,1,220910,Santa Cruz do Piauí,-7.185,-41.768
405,3,220920,Santa Filomena,-9.112,-45.922
406,2,220935,Santana do Piauí,-6.948,-41.519
407,1,220940,Santo Antônio de Lisboa,-6.981,-41.234
408,1,220975,São Gonçalo do Gurguéia,-10.03,-45.303
409,1,220987,São João da Fronteira,-3.956,-41.258
410,3,220990,São João da Serra,-5.514,-41.899
411,1,220995,São João da Varjota,-6.942,-41.89
412,2,221000,São João do Piauí,-8.358,-42.247
413,1,221005,São José do Divino,-3.811,-41.833
414,3,221020,São José do Piauí,-6.872,-41.475
415,1,221030,São Julião,-7.085,-40.826
416,1,221035,São Lourenço do Piauí,-9.169,-42.545
417,1,221040,São Miguel do Tapuio,-5.504,-41.323
418,1,221050,São Pedro do Piauí,-5.929,-42.719
419,8,221060,São Raimundo Nonato,-9.015,-42.699
420,1,221062,Sebastião Barros,-10.817,-44.834
421,2,221070,Simões,-7.599,-40.818
422,2,221080,Simplício Mendes,-7.854,-41.91
423,1,221090,Socorro do Piauí,-7.866,-42.491
424,1,221093,Sussuapara,-7.043,-41.384
425,92,221100,Teresina,-5.089,-42.802
426,1,221110,União,-4.586,-42.864
427,3,221120,Uruçuí,-7.229,-44.556
428,2,221130,Valença do Piauí,-6.408,-41.746
429,1,221150,Vera Mendes,-7.603,-41.483
430,9,230020,Acaraú,-2.886,-40.12
431,2,230030,Acopiara,-6.095,-39.453
432,1,230040,Aiuaba,-6.574,-40.124
433,1,230060,Altaneira,-7.002,-39.741
434,1,230070,Alto Santo,-5.521,-38.272
435,2,230075,Amontada,-3.361,-39.831
436,1,230080,Antonina do Norte,-6.775,-39.989
437,4,230090,Apuiarés,-3.949,-39.432
438,5,230100,Aquiraz,-3.901,-38.391
439,5,230110,Aracati,-4.562,-37.77
440,1,230130,Araripe,-7.213,-40.046
441,2,230160,Assaré,-6.874,-39.875
442,1,230170,Aurora,-6.943,-38.968
443,8,230190,Barbalha,-7.305,-39.302
444,2,230195,Barreira,-4.287,-38.643
445,3,230200,Barro,-7.177,-38.782
446,4,230205,Barroquinha,-3.019,-41.137
447,2,230220,Beberibe,-4.18,-38.131
448,5,230240,Boa Viagem,-5.128,-39.732
449,2,230250,Brejo Santo,-7.493,-38.985
450,3,230260,Camocim,-2.902,-40.841
451,14,230280,Canindé,-4.359,-39.312
452,1,230290,Capistrano,-4.47,-38.901
453,2,230320,Caririaçu,-7.042,-39.284
454,2,230330,Cariús,-6.537,-39.497
455,3,230350,Cascavel,-4.131,-38.236
456,2,230365,Catunda,-4.648,-40.201
457,20,230370,Caucaia,-3.733,-38.656
458,1,230380,Cedro,-6.607,-39.062
459,1,230390,Chaval,-3.034,-41.244
460,1,230393,Choró,-4.843,-39.141
461,3,230395,Chorozinho,-4.3,-38.497
462,6,230410,Crateús,-5.178,-40.678
463,5,230420,Crato,-7.234,-39.409
464,2,230423,Croatá,-4.4,-40.911
465,1,230425,Cruz,-2.918,-40.172
466,2,230426,Deputado Irapuan Pinheiro,-5.917,-39.268
467,1,230427,Ererê,-6.032,-38.349
468,5,230428,Eusébio,-3.89,-38.451
469,1,230430,Farias Brito,-6.931,-39.566
470,153,230440,Fortaleza,-3.717,-38.543
471,2,230445,Fortim,-4.452,-37.797
472,2,230450,Frecheirinha,-3.76,-40.816
473,6,230470,Granja,-3.12,-40.826
474,2,230490,Groaíras,-3.913,-40.383
475,1,230495,Guaiúba,-4.04,-38.637
476,5,230500,Guaraciaba do Norte,-4.167,-40.748
477,1,230520,Hidrolândia,-4.408,-40.438
478,8,230523,Horizonte,-4.099,-38.496
479,1,230526,Ibaretama,-4.804,-38.753
480,2,230530,Ibiapina,-3.923,-40.889
481,3,230533,Ibicuitinga,-4.974,-38.639
482,2,230535,Icapuí,-4.713,-37.355
483,4,230540,Icó,-6.401,-38.862
484,9,230550,Iguatu,-6.359,-39.299
485,4,230560,Independência,-5.396,-40.309
486,1,230570,Ipaumirim,-6.79,-38.719
487,6,230580,Ipu,-4.322,-40.711
488,1,230590,Ipueiras,-4.542,-40.719
489,1,230600,Iracema,-5.812,-38.306
490,2,230610,Irauçuba,-3.746,-39.783
491,2,230620,Itaiçaba,-4.674,-37.822
492,2,230625,Itaitinga,-3.969,-38.528
493,6,230630,Itapagé,-3.687,-39.586
494,6,230640,Itapipoca,-3.494,-39.579
495,2,230655,Itarema,-2.92,-39.915
496,2,230660,Itatira,-4.529,-39.622
497,1,230670,Jaguaretama,-5.613,-38.767
498,3,230690,Jaguaribe,-5.891,-38.622
499,1,230700,Jaguaruana,-4.834,-37.781
500,1,230710,Jardim,-7.582,-39.298
501,1,230725,Jijoca de Jericoacoara,-2.794,-40.513
502,28,230730,Juazeiro do Norte,-7.213,-39.315
503,1,230740,Jucás,-6.525,-39.528
504,1,230750,Lavras da Mangabeira,-6.753,-38.972
505,5,230760,Limoeiro do Norte,-5.146,-38.098
506,2,230763,Madalena,-4.857,-39.577
507,19,230765,Maracanaú,-3.877,-38.626
508,6,230770,Maranguape,-3.89,-38.686
509,2,230780,Marco,-3.124,-40.147
510,1,230790,Martinópole,-3.226,-40.697
511,4,230800,Massapê,-3.523,-40.343
512,5,230810,Mauriti,-7.389,-38.774
513,1,230820,Meruoca,-3.542,-40.455
514,1,230830,Milagres,-7.313,-38.946
515,2,230835,Milhã,-5.675,-39.194
516,1,230837,Miraíma,-3.569,-39.97
517,3,230840,Missão Velha,-7.25,-39.143
518,2,230850,Mombaça,-5.743,-39.628
519,1,230860,Monsenhor Tabosa,-4.789,-40.063
520,4,230870,Morada Nova,-5.107,-38.373
521,2,230910,Mulungu,-4.306,-38.996
522,1,230930,Nova Russas,-4.707,-40.563
523,4,230940,Novo Oriente,-5.534,-40.774
524,1,230950,Orós,-6.244,-38.914
525,2,230960,Pacajus,-4.173,-38.461
526,1,230970,Pacatuba,-3.984,-38.62
527,3,231000,Palhano,-4.745,-37.959
528,2,231010,Palmácia,-4.15,-38.846
529,4,231020,Paracuru,-3.41,-39.031
530,5,231030,Parambu,-6.211,-40.694
531,1,231040,Paramoti,-4.097,-39.239
532,1,231050,Pedra Branca,-5.454,-39.717
533,1,231060,Penaforte,-7.829,-39.077
534,6,231070,Pentecoste,-3.793,-39.27
535,7,231080,Pereiro,-6.045,-38.461
536,2,231085,Pindoretama,-4.028,-38.306
537,1,231095,Pires Ferreira,-4.247,-40.645
538,1,231110,Porteiras,-7.535,-39.118
539,1,231123,Potiretama,-5.668,-38.251
540,2,231126,Quiterianópolis,-5.843,-40.701
541,5,231130,Quixadá,-4.971,-39.015
542,1,231135,Quixelô,-6.254,-39.202
543,7,231140,Quixeramobim,-5.199,-39.293
544,2,231150,Quixeré,-5.074,-37.989
545,1,231160,Redenção,-4.226,-38.731
546,6,231180,Russas,-4.94,-37.976
547,1,231190,Saboeiro,-6.542,-39.907
548,3,231195,Salitre,-7.285,-40.457
549,2,231200,Santana do Acaraú,-3.461,-40.212
550,2,231210,Santana do Cariri,-7.188,-39.737
551,1,231220,Santa Quitéria,-4.332,-40.157
552,4,231230,São Benedito,-4.049,-40.865
553,4,231240,São Gonçalo do Amarante,-3.606,-38.969
554,1,231250,São João do Jaguaribe,-5.271,-38.274
555,2,231260,São Luís do Curu,-3.67,-39.243
556,6,231270,Senador Pompeu,-5.588,-39.372
557,42,231290,Sobral,-3.674,-40.239
558,1,231300,Solonópole,-5.733,-39.008
559,1,231310,Tabuleiro do Norte,-5.247,-38.131
560,3,231320,Tamboril,-4.832,-40.321
561,8,231330,Tauá,-6.003,-40.293
562,1,231335,Tejuçuoca,-3.989,-39.581
563,4,231340,Tianguá,-3.732,-40.992
564,5,231350,Trairi,-3.278,-39.269
565,1,231355,Tururu,-3.581,-39.437
566,1,231360,Ubajara,-3.854,-40.921
567,1,231375,Umirim,-3.677,-39.35
568,1,231380,Uruburetama,-3.625,-39.508
569,2,231390,Uruoca,-3.314,-40.557
570,1,231395,Varjota,-4.194,-40.477
571,1,231400,Várzea Alegre,-6.789,-39.296
572,6,231410,Viçosa do Ceará,-3.562,-41.092
573,2,240020,Açu,-5.577,-36.909
574,1,240080,Angicos,-5.666,-36.601
575,6,240100,Apodi,-5.664,-37.799
576,1,240120,Arês,-6.194,-35.16
577,3,240130,Augusto Severo,-5.864,-37.31
578,1,240145,Baraúna,-5.08,-37.617
579,9,240200,Caicó,-6.458,-37.098
580,5,240230,Caraúbas,-5.793,-37.557
581,3,240260,Ceará-Mirim,-5.634,-35.426
582,2,240310,Currais Novos,-6.261,-36.515
583,11,240325,Parnamirim,-5.916,-35.263
584,1,240330,Encanto,-6.111,-38.306
585,1,240350,Espírito Santo,-6.332,-35.309
586,1,240360,Extremoz,-5.706,-35.307
587,2,240380,Florânia,-6.127,-36.818
588,1,240410,Galinhos,-5.091,-36.275
589,1,240430,Governador Dix-Sept Rosado,-5.459,-37.521
590,1,240440,Grossos,-4.98,-37.155
591,1,240450,Guamaré,-5.108,-36.32
592,1,240470,Ipanguaçu,-5.498,-36.855
593,1,240480,Ipueira,-6.814,-37.199
594,1,240510,Jandaíra,-5.356,-36.128
595,1,240520,Janduís,-6.016,-37.409
596,1,240570,Jardim do Seridó,-6.584,-36.774
597,3,240600,José da Penha,-6.317,-38.281
598,3,240610,Jucurutu,-6.034,-37.02
599,1,240615,Jundiá,-6.272,-35.327
600,1,240620,Lagoa d'Anta,-6.391,-35.598
601,1,240650,Lagoa Nova,-6.096,-36.469
602,1,240670,Lajes,-5.7,-36.245
603,1,240700,Luís Gomes,-6.414,-38.389
604,2,240710,Macaíba,-5.858,-35.354
605,3,240720,Macau,-5.115,-36.634
606,2,240725,Major Sales,-6.406,-38.324
607,1,240730,Marcelino Vieira,-6.294,-38.167
608,1,240760,Messias Targino,-6.079,-37.514
609,1,240790,Monte das Gameleiras,-6.441,-35.783
610,17,240800,Mossoró,-5.188,-37.344
611,35,240810,Natal,-5.795,-35.209
612,2,240820,Nísia Floresta,-6.091,-35.209
613,1,240880,Parazinho,-5.223,-35.838
614,4,240890,Parelhas,-6.688,-36.658
615,1,240895,Rio do Fogo,-5.273,-35.383
616,1,240910,Passa e Fica,-6.436,-35.643
617,1,240920,Passagem,-6.279,-35.378
618,5,240930,Patu,-6.11,-37.637
619,8,240940,Pau dos Ferros,-6.111,-38.209
620,1,241040,Pureza,-5.467,-35.556
621,1,241105,Tibau,-4.837,-37.253
622,3,241120,Santa Cruz,-6.229,-36.023
623,1,241190,São Francisco do Oeste,-5.975,-38.152
624,2,241200,São Gonçalo do Amarante,-5.793,-35.329
625,1,241210,São João do Sabugi,-6.718,-37.201
626,4,241220,São José de Mipibu,-6.075,-35.238
627,3,241250,São Miguel,-6.212,-38.497
628,1,241270,São Pedro,-5.898,-35.634
629,1,241330,Serra de São Bento,-6.417,-35.704
630,2,241340,Serra Negra do Norte,-6.666,-37.397
631,1,241355,Serrinha dos Pintos,-6.11,-37.956
632,1,241410,Tenente Ananias,-6.465,-38.18
633,1,241415,Tenente Laurentino Cruz,-6.148,-36.719
634,1,241450,Umarizal,-5.991,-37.814
635,1,241490,Viçosa,-5.994,-37.944
636,1,250010,Água Branca,-7.512,-37.641
637,2,250030,Alagoa Grande,-7.089,-35.635
638,2,250060,Alhandra,-7.439,-34.914
639,1,250073,Amparo,-7.568,-37.064
640,2,250080,Araçagi,-6.853,-35.381
641,3,250100,Araruna,-6.558,-35.742
642,4,250110,Areia,-6.963,-35.692
643,2,250130,Aroeiras,-7.545,-35.708
644,1,250135,Assunção,-7.074,-36.731
645,1,250140,Baía da Traição,-6.688,-34.936
646,1,250150,Bananeiras,-6.75,-35.633
647,1,250157,Barra de Santana,-7.52,-36.0
648,4,250180,Bayeux,-7.125,-34.932
649,1,250190,Belém,-6.747,-35.519
650,1,250200,Belém do Brejo do Cruz,-6.189,-37.536
651,1,250205,Bernardino Batista,-6.452,-38.551
652,1,250210,Boa Ventura,-7.414,-38.216
653,2,250240,Bonito de Santa Fé,-7.313,-38.515
654,4,250320,Cabedelo,-6.981,-34.834
655,1,250330,Cachoeira dos Índios,-6.927,-38.674
656,1,250355,Cacimbas,-7.211,-37.058
657,6,250370,Cajazeiras,-6.89,-38.562
658,1,250375,Cajazeirinhas,-6.961,-37.806
659,1,250380,Caldas Brandão,-7.103,-35.326
660,1,250390,Camalaú,-7.889,-36.823
661,20,250400,Campina Grande,-7.231,-35.881
662,3,250430,Catolé do Rocha,-6.344,-37.747
663,1,250440,Conceição,-7.562,-38.509
664,2,250450,Condado,-6.91,-37.601
665,3,250460,Conde,-7.26,-34.908
666,1,250500,Cubati,-6.868,-36.351
667,3,250523,Cuité de Mamanguape,-6.915,-35.252
668,1,250527,Curral de Cima,-6.717,-35.269
669,1,250530,Curral Velho,-7.581,-38.198
670,2,250540,Desterro,-7.291,-37.094
671,1,250580,Duas Estradas,-6.685,-35.418
672,1,250590,Emas,-7.108,-37.716
673,5,250600,Esperança,-7.023,-35.86
674,1,250620,Frei Martinho,-6.403,-36.456
675,5,250630,Guarabira,-6.855,-35.49
676,1,250640,Gurinhém,-7.124,-35.424
677,2,250650,Gurjão,-7.247,-36.489
678,1,250660,Ibiara,-7.501,-38.405
679,2,250690,Itabaiana,-7.329,-35.333
680,1,250700,Itaporanga,-7.304,-38.15
681,2,250710,Itapororoca,-6.83,-35.247
682,1,250740,Jericó,-6.554,-37.809
683,39,250750,João Pessoa,-7.115,-34.863
684,2,250760,Juarez Távora,-7.172,-35.583
685,3,250770,Juazeirinho,-7.068,-36.578
686,1,250810,Lagoa,-6.571,-37.916
687,2,250880,Malta,-6.904,-37.522
688,2,250890,Mamanguape,-6.839,-35.126
689,2,250910,Mari,-7.06,-35.319
690,1,250940,Mogeiro,-7.299,-35.479
691,1,250960,Monte Horebe,-7.215,-38.586
692,3,250970,Monteiro,-7.889,-37.12
693,1,251010,Nova Floresta,-6.455,-36.203
694,3,251020,Nova Olinda,-7.48,-38.042
695,18,251080,Patos,-7.024,-37.28
696,1,251090,Paulista,-6.594,-37.624
697,2,251100,Pedra Branca,-7.427,-38.068
698,1,251110,Pedra Lavrada,-6.757,-36.48
699,2,251120,Pedras de Fogo,-7.402,-35.116
700,3,251130,Piancó,-7.198,-37.929
701,1,251150,Pilar,-7.267,-35.26
702,1,251170,Pilõezinhos,-6.844,-35.531
703,3,251210,Pombal,-6.77,-37.802
704,1,251220,Prata,-7.691,-37.08
705,3,251250,Queimadas,-7.358,-35.898
706,3,251270,Remígio,-6.903,-35.834
707,1,251300,Salgadinho,-7.103,-36.845
708,1,251330,Santa Helena,-6.72,-38.638
709,2,251335,Santa Inês,-7.621,-38.554
710,3,251390,São Bento,-6.486,-37.451
711,2,251398,São Francisco,-6.619,-38.094
712,2,251400,São João do Cariri,-7.391,-36.533
713,1,251430,São José de Caiana,-7.249,-38.301
714,1,251440,São José de Espinharas,-6.847,-37.326
715,3,251450,São José de Piranhas,-7.121,-38.502
716,2,251510,São Sebastião de Lagoa de Roça,-7.083,-35.835
717,7,251530,Sapé,-7.095,-35.233
718,1,251550,Serra Branca,-7.483,-36.665
719,1,251560,Serra da Raiz,-6.687,-35.444
720,1,251590,Serraria,-6.82,-35.633
721,2,251600,Solânea,-6.778,-35.697
722,1,251615,Sossêgo,-6.769,-36.254
723,7,251620,Sousa,-6.761,-38.231
724,1,251640,Campo de Santana,-6.488,-35.637
725,2,251650,Taperoá,-7.207,-36.827
726,3,251660,Tavares,-7.636,-37.878
727,1,251670,Teixeira,-7.223,-37.254
728,2,260005,Abreu e Lima,-7.912,-34.903
729,2,260020,Afrânio,-8.515,-41.005
730,5,260050,Águas Belas,-9.111,-37.123
731,1,260060,Alagoinha,-8.466,-36.776
732,3,260070,Aliança,-7.603,-35.231
733,1,260090,Amaraji,-8.383,-35.453
734,4,260110,Araripina,-7.576,-40.498
735,4,260120,Arcoverde,-8.419,-37.054
736,3,260160,Belém de São Francisco,-8.758,-38.964
737,6,260170,Belo Jardim,-8.336,-36.424
738,1,260180,Betânia,-8.276,-38.034
739,4,260190,Bezerros,-8.233,-35.797
740,4,260200,Bodocó,-7.778,-39.941
741,3,260210,Bom Conselho,-9.17,-36.68
742,1,260220,Bom Jardim,-7.796,-35.587
743,3,260230,Bonito,-8.47,-35.729
744,1,260260,Brejo da Madre de Deus,-8.146,-36.371
745,2,260270,Buenos Aires,-7.726,-35.327
746,4,260280,Buíque,-8.623,-37.156
747,10,260290,Cabo de Santo Agostinho,-8.287,-35.035
748,3,260300,Cabrobó,-8.512,-39.307
749,1,260310,Cachoeirinha,-8.486,-36.233
750,1,260340,Calumbi,-7.941,-38.15
751,7,260345,Camaragibe,-8.022,-34.981
752,1,260360,Camutanga,-7.407,-35.274
753,2,260370,Canhotinho,-8.882,-36.191
754,1,260390,Carnaíba,-7.805,-37.794
755,2,260400,Carpina,-7.851,-35.255
756,12,260410,Caruaru,-8.283,-35.976
757,1,260415,Casinhas,-7.741,-35.721
758,2,260430,Cedro,-7.722,-39.239
759,1,260450,Chã Grande,-8.238,-35.462
760,1,260460,Condado,-7.586,-35.106
761,1,260480,Cortês,-8.47,-35.541
762,1,260490,Cumaru,-8.006,-35.697
763,1,260510,Custódia,-8.088,-37.643
764,3,260520,Escada,-8.359,-35.224
765,1,260530,Exu,-7.512,-39.724
766,1,260545,Fernando de Noronha,-3.84,-32.411
767,2,260550,Ferreiros,-7.448,-35.244
768,4,260560,Flores,-7.866,-37.975
769,1,260570,Floresta,-8.601,-38.568
770,11,260600,Garanhuns,-8.89,-36.493
771,1,260620,Goiana,-7.561,-35.003
772,8,260640,Gravatá,-8.201,-35.565
773,2,260650,Iati,-9.046,-36.846
774,5,260680,Igarassu,-7.834,-34.906
775,4,260720,Ipojuca,-8.399,-35.064
776,1,260730,Ipubi,-7.652,-40.149
777,1,260750,Itaíba,-8.948,-37.423
778,2,260765,Itambé,-7.41,-35.113
779,3,260770,Itapetim,-7.378,-37.19
780,25,260790,Jaboatão dos Guararapes,-8.113,-35.015
781,3,260795,Jaqueira,-8.727,-35.793
782,4,260805,Jatobá,-9.183,-38.269
783,2,260810,João Alfredo,-7.856,-35.588
784,1,260820,Joaquim Nabuco,-8.624,-35.533
785,2,260830,Jupi,-8.712,-36.415
786,2,260840,Jurema,-8.718,-36.136
787,2,260860,Lagoa do Ouro,-9.127,-36.459
788,1,260870,Lagoa dos Gatos,-8.658,-35.9
789,2,260875,Lagoa Grande,-8.997,-40.272
790,2,260880,Lajedo,-8.664,-36.32
791,5,260890,Limoeiro,-7.875,-35.45
792,5,260900,Macaparana,-7.555,-35.453
793,1,260920,Maraial,-8.803,-35.829
794,3,260940,Moreno,-8.119,-35.092
795,14,260960,Olinda,-8.009,-34.855
796,5,260990,Ouricuri,-7.883,-40.082
797,6,261000,Palmares,-8.683,-35.592
798,1,261030,Paranatama,-8.921,-36.658
799,2,261050,Passira,-7.995,-35.581
800,1,261060,Paudalho,-7.897,-35.18
801,18,261070,Paulista,-7.941,-34.873
802,2,261090,Pesqueira,-8.358,-36.696
803,16,261110,Petrolina,-9.393,-40.508
804,1,261130,Pombos,-8.141,-35.396
805,95,261160,Recife,-8.054,-34.881
806,1,261180,Ribeirão,-8.514,-35.378
807,1,261210,Salgadinho,-7.936,-35.633
808,7,261220,Salgueiro,-8.067,-39.12
809,2,261240,Sanharó,-8.361,-36.566
810,2,261250,Santa Cruz do Capibaribe,-7.957,-36.205
811,1,261255,Santa Filomena,-8.163,-40.616
812,5,261260,Santa Maria da Boa Vista,-8.809,-39.825
813,3,261300,São Bento do Una,-8.523,-36.444
814,1,261310,São Caitano,-8.326,-36.143
815,1,261320,São João,-8.876,-36.367
816,5,261350,São José do Belmonte,-7.861,-38.76
817,3,261360,São José do Egito,-7.479,-37.274
818,5,261370,São Lourenço da Mata,-8.002,-35.018
819,1,261380,São Vicente Ferrer,-7.591,-35.491
820,6,261390,Serra Talhada,-7.986,-38.296
821,4,261410,Sertânia,-8.074,-37.264
822,2,261420,Sirinhaém,-8.591,-35.116
823,1,261430,Moreilândia,-7.631,-39.551
824,1,261450,Surubim,-7.832,-35.756
825,2,261460,Tabira,-7.591,-37.539
826,1,261500,Taquaritinga do Norte,-7.903,-36.044
827,1,261510,Terezinha,-9.056,-36.623
828,2,261530,Timbaúba,-7.505,-35.318
829,1,261560,Trindade,-7.762,-40.268
830,1,261580,Tupanatinga,-8.753,-37.34
831,2,261610,Verdejante,-7.926,-38.972
832,1,261630,Vicência,-7.657,-35.327
833,4,261640,Vitória de Santo Antão,-8.118,-35.291
834,18,270030,Arapiraca,-9.752,-36.661
835,1,270050,Barra de Santo Antônio,-9.405,-35.507
836,1,270060,Barra de São Miguel,-9.84,-35.908
837,1,270070,Batalha,-9.678,-37.125
838,1,270080,Belém,-9.571,-36.492
839,1,270130,Cajueiro,-9.397,-36.154
840,2,270140,Campo Alegre,-9.782,-36.351
841,2,270230,Coruripe,-10.126,-36.176
842,1,270240,Delmiro Gouveia,-9.386,-37.996
843,1,270250,Dois Riachos,-9.393,-37.101
844,1,270255,Estrela de Alagoas,-9.39,-36.76
845,1,270260,Feira Grande,-9.9,-36.678
846,6,270290,Girau do Ponciano,-9.884,-36.829
847,1,270320,Igreja Nova,-10.125,-36.662
848,1,270330,Inhapi,-9.219,-37.754
849,2,270400,Junqueiro,-9.925,-36.476
850,2,270410,Lagoa da Canoa,-9.83,-36.738
851,30,270430,Maceió,-9.666,-35.735
852,3,270440,Major Isidoro,-9.532,-36.985
853,1,270460,Maravilha,-9.236,-37.35
854,2,270470,Marechal Deodoro,-9.71,-35.895
855,2,270570,Olho d'Água das Flores,-9.536,-37.294
856,1,270580,Olho d'Água do Casado,-9.501,-37.832
857,4,270630,Palmeira dos Índios,-9.407,-36.628
858,1,270644,Paripueira,-9.465,-35.552
859,2,270710,Piranhas,-9.624,-37.757
860,1,270750,Porto Real do Colégio,-10.186,-36.84
861,1,270760,Quebrangulo,-9.319,-36.471
862,1,270770,Rio Largo,-9.478,-35.853
863,2,270800,Santana do Ipanema,-9.378,-37.245
864,1,270840,São José da Tapera,-9.558,-37.381
865,2,270850,São Luís do Quitunde,-9.318,-35.561
866,1,270860,São Miguel dos Campos,-9.781,-36.094
867,1,270880,São Sebastião,-9.934,-36.554
868,1,270915,Teotônio Vilela,-9.905,-36.353
869,3,270930,União dos Palmares,-9.163,-36.032
870,1,270940,Viçosa,-9.371,-36.241
871,3,280020,Aquidabã,-10.281,-37.019
872,37,280030,Aracaju,-10.911,-37.072
873,2,280067,Boquim,-11.147,-37.621
874,2,280100,Campo do Brito,-10.733,-37.493
875,2,280120,Canindé de São Francisco,-9.642,-37.788
876,3,280130,Capela,-10.503,-37.053
877,2,280140,Carira,-10.361,-37.701
878,3,280210,Estância,-11.268,-37.438
879,1,280240,Gararu,-9.968,-37.083
880,1,280260,Gracho Cardoso,-10.227,-37.198
881,10,280290,Itabaiana,-10.685,-37.425
882,1,280300,Itabaianinha,-11.274,-37.79
883,1,280320,Itaporanga d'Ajuda,-10.998,-37.311
884,1,280330,Japaratuba,-10.593,-36.94
885,2,280340,Japoatã,-10.347,-36.801
886,7,280350,Lagarto,-10.917,-37.65
887,2,280360,Laranjeiras,-10.806,-37.17
888,1,280370,Macambira,-10.666,-37.541
889,1,280380,Malhada dos Bois,-10.349,-36.924
890,1,280390,Malhador,-10.658,-37.305
891,1,280430,Muribeca,-10.427,-36.959
892,1,280440,Neópolis,-10.32,-36.579
893,1,280445,Nossa Senhora Aparecida,-10.443,-37.489
894,2,280450,Nossa Senhora da Glória,-10.218,-37.42
895,2,280460,Nossa Senhora das Dores,-10.492,-37.193
896,3,280480,Nossa Senhora do Socorro,-10.855,-37.126
897,1,280490,Pacatuba,-10.453,-36.651
898,1,280530,Pirambu,-10.738,-36.856
899,4,280540,Poço Redondo,-9.806,-37.685
900,1,280550,Poço Verde,-10.708,-38.183
901,1,280560,Porto da Folha,-9.917,-37.278
902,5,280570,Propriá,-10.211,-36.84
903,1,280620,Salgado,-11.032,-37.475
904,5,280670,São Cristóvão,-11.015,-37.206
905,3,280680,São Domingos,-10.791,-37.568
906,7,280710,Simão Dias,-10.738,-37.811
907,2,280740,Tobias Barreto,-11.184,-37.998
908,1,280760,Umbaúba,-11.383,-37.658
909,2,290010,Abaíra,-13.25,-41.664
910,1,290020,Abaré,-8.721,-39.115
911,1,290030,Acajutiba,-11.662,-38.017
912,1,290035,Adustina,-10.533,-38.1
913,1,290050,Érico Cardoso,-13.418,-42.14
914,14,290070,Alagoinhas,-12.136,-38.419
915,4,290100,Amargosa,-13.03,-39.605
916,2,290110,Amélia Rodrigues,-12.409,-38.759
917,1,290120,Anagé,-14.612,-41.136
918,2,290130,Andaraí,-12.807,-41.331
919,1,290140,Angical,-12.007,-44.694
920,1,290190,Aporá,-11.66,-38.081
921,3,290200,Aracatu,-14.428,-41.462
922,1,290260,Baixa Grande,-11.96,-40.168
923,2,290270,Barra,-11.089,-43.142
924,2,290280,Barra da Estiva,-13.626,-41.327
925,1,290290,Barra do Choça,-14.881,-40.579
926,9,290320,Barreiras,-12.153,-44.99
927,3,290323,Barro Alto,-11.761,-41.912
928,1,290327,Barrocas,-11.529,-39.078
929,1,290330,Barro Preto,-14.81,-39.471
930,2,290360,Biritinga,-11.617,-38.8
931,1,290370,Boa Nova,-14.363,-40.208
932,2,290380,Boa Vista do Tupim,-12.66,-40.609
933,5,290390,Bom Jesus da Lapa,-13.255,-43.418
934,1,290410,Boquira,-12.823,-42.731
935,1,290420,Botuporã,-13.382,-42.523
936,1,290430,Brejões,-13.104,-39.796
937,1,290440,Brejolândia,-12.483,-43.966
938,2,290450,Brotas de Macaúbas,-11.999,-42.626
939,2,290460,Brumado,-14.204,-41.665
940,2,290475,Buritirama,-10.708,-43.631
941,2,290490,Cachoeira,-12.618,-38.956
942,1,290510,Caém,-11.091,-40.435
943,3,290520,Caetité,-14.069,-42.475
944,1,290530,Cafarnaum,-11.694,-41.468
945,1,290540,Cairu,-13.487,-39.044
946,1,290560,Camacan,-15.419,-39.496
947,6,290570,Camaçari,-12.698,-38.324
948,1,290580,Camamu,-13.945,-39.104
949,4,290590,Campo Alegre de Lourdes,-9.516,-43.011
950,2,290600,Campo Formoso,-10.509,-40.321
951,2,290610,Canápolis,-13.07,-44.202
952,1,290620,Canarana,-11.685,-41.769
953,1,290630,Canavieiras,-15.675,-38.947
954,1,290640,Candeal,-11.808,-39.119
955,7,290650,Candeias,-12.668,-38.551
956,1,290660,Candiba,-14.411,-42.867
957,1,290670,Cândido Sales,-15.505,-41.239
958,1,290682,Canudos,-9.964,-39.164
959,3,290687,Capim Grosso,-11.381,-40.013
960,1,290690,Caravelas,-17.732,-39.266
961,3,290710,Carinhanha,-14.305,-43.765
962,3,290720,Casa Nova,-9.162,-40.971
963,2,290730,Castro Alves,-12.766,-39.428
964,3,290750,Catu,-12.353,-38.379
965,1,290755,Caturama,-13.329,-42.291
966,2,290760,Central,-11.136,-42.113
967,1,290790,Cipó,-11.1,-38.517
968,2,290800,Coaraci,-14.641,-39.551
969,1,290830,Conceição do Almeida,-12.809,-39.164
970,1,290840,Conceição do Coité,-11.564,-39.283
971,1,290850,Conceição do Jacuípe,-12.327,-38.765
972,1,290860,Conde,-11.814,-37.611
973,4,290910,Coribe,-13.829,-44.454
974,1,290930,Correntina,-13.343,-44.637
975,2,290940,Cotegipe,-12.028,-44.258
976,1,290950,Cravolândia,-13.359,-39.815
977,1,290960,Crisópolis,-11.511,-38.15
978,4,290980,Cruz das Almas,-12.67,-39.102
979,3,290990,Curaçá,-8.992,-39.908
980,5,291005,Dias d'Ávila,-12.613,-38.297
981,1,291010,Dom Basílio,-13.76,-41.771
982,1,291040,Encruzilhada,-15.531,-40.909
983,1,291050,Entre Rios,-11.942,-38.084
984,1,291060,Esplanada,-11.796,-37.945
985,5,291070,Euclides da Cunha,-10.508,-39.014
986,6,291072,Eunápolis,-16.378,-39.58
987,1,291075,Fátima,-10.6,-38.217
988,11,291080,Feira de Santana,-12.267,-38.967
989,1,291085,Filadélfia,-10.741,-40.133
990,1,291100,Floresta Azul,-14.86,-39.66
991,2,291110,Formosa do Rio Preto,-11.048,-45.193
992,1,291130,Gentio do Ouro,-11.429,-42.506
993,1,291160,Governador Mangabeira,-12.602,-39.043
994,12,291170,Guanambi,-14.223,-42.781
995,1,291180,Guaratinga,-16.584,-39.783
996,2,291190,Iaçu,-12.767,-40.212
997,1,291220,Ibicoara,-13.411,-41.285
998,2,291250,Ibipitanga,-12.882,-42.486
999,1,291270,Ibirapitanga,-14.164,-39.374
1000,1,291290,Ibirataia,-14.067,-39.641
1001,2,291300,Ibitiara,-12.652,-42.218
1002,3,291310,Ibititá,-11.547,-41.978
1003,2,291350,Iguaí,-14.756,-40.089
1004,6,291360,Ilhéus,-14.789,-39.049
1005,4,291400,Ipirá,-12.158,-39.737
1006,1,291440,Iraquara,-12.249,-41.619
1007,5,291460,Irecê,-11.304,-41.856
1008,6,291470,Itaberaba,-12.528,-40.307
1009,15,291480,Itabuna,-14.786,-39.28
1010,2,291500,Itaeté,-12.986,-40.973
1011,1,291520,Itagibá,-14.284,-39.843
1012,1,291530,Itagimirim,-16.087,-39.614
1013,2,291535,Itaguaçu da Bahia,-11.012,-42.399
1014,1,291550,Itajuípe,-14.678,-39.375
1015,2,291560,Itamaraju,-17.039,-39.531
1016,2,291580,Itambé,-15.245,-40.624
1017,1,291600,Itanhém,-17.166,-40.33
1018,1,291610,Itaparica,-12.888,-38.679
1019,1,291630,Itapebi,-15.951,-39.534
1020,2,291640,Itapetinga,-15.249,-40.248
1021,2,291650,Itapicuru,-11.317,-38.233
1022,1,291670,Itaquara,-13.451,-39.941
1023,1,291680,Itarantim,-15.66,-40.066
1024,1,291690,Itiruçu,-13.532,-40.15
1025,6,291750,Jacobina,-11.181,-40.518
1026,3,291760,Jaguaquara,-13.531,-39.971
1027,2,291770,Jaguarari,-10.26,-40.196
1028,1,291780,Jaguaripe,-13.113,-38.896
1029,10,291800,Jequié,-13.858,-40.084
1030,2,291810,Jeremoabo,-10.067,-38.35
1031,1,291820,Jiquiriçá,-13.257,-39.572
1032,1,291830,Jitaúna,-14.019,-39.889
1033,14,291840,Juazeiro,-9.414,-40.503
1034,1,291870,Lafaiete Coutinho,-13.656,-40.213
1035,1,291900,Lajedinho,-12.356,-40.906
1036,1,291905,Lajedo do Tabocal,-13.475,-40.224
1037,2,291915,Lapão,-11.383,-41.832
1038,4,291920,Lauro de Freitas,-12.894,-38.327
1039,2,291930,Lençóis,-12.563,-41.39
1040,2,291950,Livramento de Nossa Senhora,-13.643,-41.841
1041,3,291980,Macaúbas,-13.019,-42.699
1042,1,292010,Mairi,-11.711,-40.149
1043,1,292020,Malhada,-14.336,-43.774
1044,1,292050,Maracás,-13.441,-40.431
1045,3,292060,Maragogipe,-12.778,-38.919
1046,1,292100,Mata de São João,-12.53,-38.299
1047,1,292110,Medeiros Neto,-17.374,-40.221
1048,2,292120,Miguel Calmon,-11.429,-40.595
1049,1,292130,Milagres,-12.87,-39.859
1050,1,292140,Mirangaba,-10.954,-40.576
1051,1,292150,Monte Santo,-10.438,-39.333
1052,1,292200,Mucuri,-18.086,-39.551
1053,1,292225,Muquém de São Francisco,-12.065,-43.549
1054,1,292230,Muritiba,-12.626,-38.99
1055,3,292240,Mutuípe,-13.229,-39.505
1056,1,292280,Nova Itarana,-13.027,-40.069
1057,1,292285,Nova Redenção,-12.819,-41.071
1058,1,292303,Novo Horizonte,-12.808,-42.168
1059,1,292305,Novo Triunfo,-10.317,-38.406
1060,2,292320,Oliveira dos Brejinhos,-12.317,-42.896
1061,1,292330,Ouriçangas,-12.017,-38.617
1062,4,292340,Palmas de Monte Alto,-14.267,-43.162
1063,1,292360,Paramirim,-13.443,-42.239
1064,1,292370,Paratinga,-12.691,-43.184
1065,1,292390,Pau Brasil,-15.464,-39.651
1066,5,292400,Paulo Afonso,-9.408,-38.222
1067,1,292405,Pé de Serra,-11.834,-39.613
1068,1,292420,Pedro Alexandre,-10.014,-37.894
1069,2,292430,Piatã,-13.152,-41.773
1070,1,292440,Pilão Arcado,-10.003,-42.504
1071,2,292460,Pindobaçu,-10.743,-40.363
1072,1,292490,Planaltino,-13.259,-40.369
1073,1,292500,Planalto,-14.67,-40.471
1074,2,292510,Poções,-14.53,-40.365
1075,5,292530,Porto Seguro,-16.45,-39.065
1076,1,292550,Prado,-17.341,-39.221
1077,1,292575,Presidente Tancredo Neves,-13.449,-39.42
1078,1,292590,Quijingue,-10.753,-39.21
1079,1,292593,Quixabeira,-11.412,-40.128
1080,7,292600,Remanso,-9.622,-42.081
1081,2,292620,Riachão das Neves,-11.746,-44.91
1082,1,292630,Riachão do Jacuípe,-11.81,-39.382
1083,2,292640,Riacho de Santana,-13.609,-42.939
1084,2,292650,Ribeira do Amparo,-11.047,-38.433
1085,1,292670,Rio de Contas,-13.579,-41.811
1086,1,292700,Rio Real,-11.485,-37.933
1087,1,292720,Ruy Barbosa,-12.284,-40.494
1088,1,292730,Salinas da Margarida,-12.871,-38.764
1089,82,292740,Salvador,-12.971,-38.511
1090,1,292750,Santa Bárbara,-11.958,-38.975
1091,2,292760,Santa Brígida,-9.736,-38.126
1092,1,292770,Santa Cruz Cabrália,-16.278,-39.025
1093,1,292800,Santaluz,-11.256,-39.375
1094,2,292805,Santa Luzia,-15.429,-39.334
1095,1,292810,Santa Maria da Vitória,-13.398,-44.198
1096,3,292820,Santana,-12.983,-44.051
1097,1,292840,Santa Rita de Cássia,-11.009,-44.519
1098,11,292870,Santo Antônio de Jesus,-12.969,-39.261
1099,1,292880,Santo Estêvão,-12.43,-39.251
1100,1,292890,São Desidério,-12.363,-44.973
1101,1,292900,São Félix,-12.605,-38.972
1102,2,292910,São Felipe,-12.847,-39.089
1103,1,292925,São Gabriel,-11.229,-41.912
1104,1,292937,São José do Jacuípe,-11.412,-39.867
1105,1,292940,São Miguel das Matas,-13.048,-39.456
1106,2,292950,São Sebastião do Passé,-12.513,-38.495
1107,1,292960,Sapeaçu,-12.728,-39.182
1108,2,292970,Sátiro Dias,-11.6,-38.6
1109,1,292975,Saubara,-12.738,-38.769
1110,3,292990,Seabra,-12.419,-41.77
1111,6,293010,Senhor do Bonfim,-10.463,-40.191
1112,2,293015,Serra do Ramalho,-13.572,-43.598
1113,3,293020,Sento Sé,-9.746,-41.885
1114,4,293050,Serrinha,-11.664,-39.008
1115,1,293060,Serrolândia,-11.416,-40.302
1116,5,293070,Simões Filho,-12.784,-38.404
1117,1,293076,Sítio do Quinto,-10.35,-38.217
1118,1,293080,Souto Soares,-12.089,-41.638
1119,3,293135,Teixeira de Freitas,-17.535,-39.742
1120,1,293180,Tremedal,-14.976,-41.411
1121,1,293190,Tucano,-10.963,-38.787
1122,1,293200,Uauá,-9.842,-39.482
1123,2,293220,Ubaitaba,-14.313,-39.323
1124,1,293230,Ubatã,-14.214,-39.523
1125,1,293240,Uibaí,-11.337,-42.133
1126,1,293245,Umburanas,-10.733,-41.326
1127,1,293280,Utinga,-12.082,-41.094
1128,3,293290,Valença,-13.37,-39.073
1129,2,293300,Valente,-11.412,-39.462
1130,1,293305,Várzea da Roça,-11.607,-40.137
1131,1,293315,Várzea Nova,-11.259,-40.942
1132,3,293320,Vera Cruz,-12.96,-38.609
1133,1,293325,Vereda,-17.223,-40.09
1134,24,293330,Vitória da Conquista,-14.866,-40.839
1135,5,293360,Xique-Xique,-10.822,-42.731
1136,3,310010,Abadia dos Dourados,-18.486,-47.403
1137,4,310020,Abaeté,-19.16,-45.446
1138,1,310050,Açucena,-19.073,-42.546
1139,2,310060,Água Boa,-17.996,-42.389
1140,1,310090,Águas Formosas,-17.082,-40.936
1141,1,310100,Águas Vermelhas,-15.747,-41.46
1142,1,310150,Além Paraíba,-21.888,-42.704
1143,15,310160,Alfenas,-21.429,-45.947
1144,1,310200,Alterosa,-21.249,-46.143
1145,2,310210,Alto Rio Doce,-21.026,-43.411
1146,1,310240,Alvorada de Minas,-18.736,-43.365
1147,6,310260,Andradas,-22.068,-46.569
1148,1,310270,Cachoeira de Pajeú,-15.966,-41.498
1149,2,310290,Antônio Carlos,-21.318,-43.747
1150,1,310340,Araçuaí,-16.85,-42.07
1151,1,310350,Araguari,-18.649,-48.187
1152,1,310360,Arantina,-21.911,-44.256
1153,2,310370,Araponga,-20.667,-42.521
1154,9,310400,Araxá,-19.593,-46.941
1155,6,310420,Arcos,-20.282,-45.539
1156,2,310430,Areado,-21.359,-46.146
1157,1,310440,Argirita,-21.61,-42.836
1158,1,310450,Arinos,-15.917,-46.106
1159,2,310480,Augusto de Lima,-18.109,-44.267
1160,3,310490,Baependi,-21.959,-44.89
1161,2,310500,Baldim,-19.288,-43.957
1162,6,310510,Bambuí,-20.006,-45.977
1163,1,310520,Bandeira,-15.885,-40.559
1164,2,310530,Bandeira do Sul,-21.728,-46.386
1165,1,310540,Barão de Cocais,-19.946,-43.487
1166,10,310560,Barbacena,-21.226,-43.774
1167,1,310570,Barra Longa,-20.283,-43.041
1168,185,310620,Belo Horizonte,-19.817,-43.956
1169,1,310630,Belo Oriente,-19.22,-42.484
1170,2,310650,Berilo,-16.952,-42.466
1171,11,310670,Betim,-19.968,-44.198
1172,1,310710,Boa Esperança,-21.09,-45.566
1173,4,310740,Bom Despacho,-19.736,-45.252
1174,3,310750,Bom Jardim de Minas,-21.947,-44.191
1175,1,310780,Bom Jesus do Galho,-19.829,-42.316
1176,1,310800,Bom Sucesso,-21.033,-44.758
1177,1,310825,Bonito de Minas,-15.323,-44.754
1178,1,310840,Botelhos,-21.633,-46.395
1179,4,310860,Brasília de Minas,-16.208,-44.429
1180,1,310880,Braúnas,-19.056,-42.716
1181,1,310890,Brasópolis,-22.474,-45.608
1182,1,310910,Bueno Brandão,-22.441,-46.351
1183,1,310920,Buenópolis,-17.873,-44.18
1184,3,310930,Buritis,-15.618,-46.423
1185,2,310950,Cabo Verde,-21.472,-46.396
1186,1,310960,Cachoeira da Prata,-19.525,-44.454
1187,2,310970,Cachoeira de Minas,-22.355,-45.779
1188,1,310990,Caetanópolis,-19.295,-44.419
1189,1,311000,Caeté,-19.88,-43.67
1190,2,311030,Caldas,-21.924,-46.386
1191,1,311040,Camacho,-20.625,-45.157
1192,1,311050,Camanducaia,-22.755,-46.145
1193,5,311060,Cambuí,-22.612,-46.058
1194,1,311070,Cambuquira,-21.852,-45.296
1195,3,311100,Campestre,-21.711,-46.246
1196,4,311120,Campo Belo,-20.897,-45.277
1197,2,311130,Campo do Meio,-21.107,-45.83
1198,2,311150,Campos Altos,-19.696,-46.171
1199,1,311160,Campos Gerais,-21.235,-45.759
1200,1,311200,Candeias,-20.767,-45.276
1201,1,311210,Caparaó,-20.521,-41.907
1202,1,311260,Capinópolis,-18.682,-49.57
1203,2,311280,Capitólio,-20.615,-46.05
1204,1,311290,Caputira,-20.172,-42.271
1205,1,311320,Carandaí,-20.954,-43.806
1206,1,311330,Carangola,-20.733,-42.029
1207,8,311340,Caratinga,-19.79,-42.139
1208,1,311350,Carbonita,-17.527,-43.016
1209,1,311360,Careaçu,-22.043,-45.699
1210,1,311380,Carmésia,-19.089,-43.142
1211,1,311410,Carmo de Minas,-22.122,-45.129
1212,5,311420,Carmo do Cajuru,-20.184,-44.771
1213,8,311430,Carmo do Paranaíba,-19.001,-46.316
1214,2,311450,Carmópolis de Minas,-20.541,-44.635
1215,1,311455,Carneirinho,-19.698,-50.688
1216,3,311460,Carrancas,-21.488,-44.643
1217,1,311480,Carvalhos,-22.001,-44.461
1218,8,311530,Cataguases,-21.389,-42.697
1219,1,311547,Catuti,-15.358,-42.963
1220,1,311550,Caxambu,-21.977,-44.933
1221,1,311570,Central de Minas,-18.762,-41.306
1222,2,311580,Centralina,-18.584,-49.199
1223,1,311615,Chapada Gaúcha,-15.306,-45.618
1224,2,311630,Cipotânea,-20.905,-43.366
1225,4,311660,Cláudio,-20.443,-44.766
1226,1,311670,Coimbra,-20.857,-42.803
1227,1,311730,Conceição das Alagoas,-19.915,-48.388
1228,1,311760,Conceição do Pará,-19.753,-44.897
1229,1,311770,Conceição do Rio Verde,-21.881,-45.085
1230,1,311790,Congonhal,-22.153,-46.039
1231,4,311800,Congonhas,-20.5,-43.858
1232,2,311810,Congonhas do Norte,-18.807,-43.681
1233,1,311820,Conquista,-19.937,-47.542
1234,9,311830,Conselheiro Lafaiete,-20.66,-43.786
1235,32,311860,Contagem,-19.932,-44.054
1236,2,311880,Coração de Jesus,-16.685,-44.365
1237,1,311910,Corinto,-18.381,-44.456
1238,1,311920,Coroaci,-18.622,-42.286
1239,3,311930,Coromandel,-18.473,-47.2
1240,6,311940,Coronel Fabriciano,-19.519,-42.629
1241,2,311960,Coronel Pacheco,-21.588,-43.266
1242,2,312020,Cristais,-20.876,-45.519
1243,1,312030,Cristália,-16.8,-42.862
1244,1,312040,Cristiano Otoni,-20.832,-43.806
1245,1,312050,Cristina,-22.212,-45.264
1246,4,312080,Cruzília,-21.839,-44.808
1247,8,312090,Curvelo,-18.756,-44.431
1248,2,312110,Delfim Moreira,-22.509,-45.28
1249,2,312140,Desterro de Entre Rios,-20.66,-44.333
1250,2,312160,Diamantina,-18.249,-43.6
1251,2,312200,Divino,-20.614,-42.149
1252,2,312210,Divino das Laranjeiras,-18.778,-41.48
1253,2,312220,Divinolândia de Minas,-18.804,-42.598
1254,25,312230,Divinópolis,-20.139,-44.884
1255,1,312247,Dom Bosco,-16.652,-46.271
1256,1,312260,Dom Joaquim,-18.967,-43.256
1257,4,312320,Dores do Indaiá,-19.463,-45.602
1258,2,312330,Dores do Turvo,-20.976,-43.189
1259,1,312340,Doresópolis,-20.287,-45.903
1260,1,312352,Durandé,-20.203,-41.798
1261,7,312360,Elói Mendes,-21.61,-45.565
1262,2,312390,Entre Rios de Minas,-20.671,-44.066
1263,3,312400,Ervália,-20.84,-42.657
1264,3,312410,Esmeraldas,-19.763,-44.314
1265,1,312430,Espinosa,-14.926,-42.819
1266,1,312450,Estiva,-22.463,-46.017
1267,1,312470,Estrela do Indaiá,-19.522,-45.788
1268,2,312490,Eugenópolis,-21.099,-42.187
1269,1,312510,Extrema,-22.855,-46.318
1270,1,312540,Felício dos Santos,-18.077,-43.247
1271,1,312595,Fervedouro,-20.726,-42.279
1272,12,312610,Formiga,-20.464,-45.426
1273,1,312650,Francisco Badaró,-16.993,-42.352
1274,3,312670,Francisco Sá,-16.476,-43.488
1275,3,312710,Frutal,-20.025,-48.941
1276,4,312733,Gameleiras,-15.082,-43.124
1277,3,312738,Goianá,-21.537,-43.202
1278,1,312740,Gonçalves,-22.659,-45.856
1279,2,312760,Gouveia,-18.454,-43.741
1280,19,312770,Governador Valadares,-18.851,-41.949
1281,1,312790,Grupiara,-18.494,-47.722
1282,6,312800,Guanhães,-18.775,-42.933
1283,1,312810,Guapé,-20.762,-45.918
1284,2,312830,Guaranésia,-21.299,-46.803
1285,2,312840,Guarani,-21.352,-43.047
1286,1,312850,Guarará,-21.732,-43.038
1287,1,312860,Guarda-Mor,-17.771,-47.098
1288,4,312870,Guaxupé,-21.305,-46.713
1289,1,312950,Ibiá,-19.478,-46.539
1290,8,312980,Ibirité,-20.022,-44.059
1291,1,313010,Igarapé,-20.07,-44.302
1292,3,313020,Igaratinga,-19.955,-44.709
1293,1,313030,Iguatama,-20.174,-45.711
1294,3,313050,Ilicínea,-20.936,-45.833
1295,1,313090,Inhapim,-19.549,-42.12
1296,1,313100,Inhaúma,-19.491,-44.39
1297,1,313110,Inimutaba,-18.729,-44.361
1298,1,313115,Ipaba,-19.414,-42.419
1299,2,313120,Ipanema,-19.801,-41.713
1300,19,313130,Ipatinga,-19.468,-42.537
1301,1,313160,Iraí de Minas,-18.984,-47.461
1302,9,313170,Itabira,-19.619,-43.227
1303,4,313190,Itabirito,-20.253,-43.801
1304,1,313200,Itacambira,-17.065,-43.309
1305,1,313210,Itacarambi,-15.102,-44.092
1306,1,313220,Itaguara,-20.392,-44.488
1307,12,313240,Itajubá,-22.426,-45.453
1308,2,313300,Itamonte,-22.284,-44.87
1309,7,313350,Itapecerica,-20.473,-45.126
1310,2,313360,Itapeva,-22.768,-46.221
1311,1,313370,Itatiaiuçu,-20.197,-44.421
1312,18,313380,Itaúna,-20.075,-44.576
1313,5,313420,Ituiutaba,-18.969,-49.465
1314,2,313440,Iturama,-19.728,-50.196
1315,1,313450,Itutinga,-21.298,-44.658
1316,3,313460,Jaboticatubas,-19.514,-43.745
1317,1,313470,Jacinto,-16.144,-40.293
1318,1,313480,Jacuí,-21.017,-46.741
1319,2,313490,Jacutinga,-22.286,-46.612
1320,1,313505,Jaíba,-15.338,-43.674
1321,4,313510,Janaúba,-15.803,-43.309
1322,4,313520,Januária,-15.488,-44.362
1323,2,313530,Japaraíba,-20.141,-45.503
1324,1,313540,Jeceaba,-20.535,-43.983
1325,1,313545,Jenipapo de Minas,-17.083,-42.258
1326,1,313550,Jequeri,-20.456,-42.666
1327,1,313560,Jequitaí,-17.236,-44.446
1328,2,313570,Jequitibá,-19.236,-44.028
1329,1,313590,Jesuânia,-21.998,-45.291
1330,1,313600,Joaíma,-16.654,-41.031
1331,2,313610,Joanésia,-19.172,-42.679
1332,6,313630,João Pinheiro,-17.743,-46.173
1333,1,313655,José Raydan,-18.219,-42.499
1334,31,313670,Juiz de Fora,-21.764,-43.35
1335,1,313695,Juvenília,-14.263,-44.16
1336,1,313700,Ladainha,-17.632,-41.738
1337,1,313720,Lagoa da Prata,-20.023,-45.544
1338,1,313730,Lagoa dos Patos,-16.983,-44.582
1339,3,313740,Lagoa Dourada,-20.914,-44.078
1340,4,313750,Lagoa Formosa,-18.779,-46.408
1341,1,313753,Lagoa Grande,-17.835,-46.514
1342,1,313770,Lajinha,-20.151,-41.623
1343,3,313780,Lambari,-21.976,-45.35
1344,12,313820,Lavras,-21.245,-45.0
1345,1,313830,Leandro Ferreira,-19.718,-45.025
1346,3,313840,Leopoldina,-21.532,-42.643
1347,2,313860,Lima Duarte,-21.843,-43.793
1348,2,313862,Limeira do Oeste,-19.551,-50.581
1349,1,313865,Lontra,-15.903,-44.305
1350,3,313870,Luminárias,-21.511,-44.903
1351,1,313880,Luz,-19.801,-45.686
1352,1,313890,Machacalis,-17.077,-40.716
1353,1,313900,Machado,-21.675,-45.92
1354,2,313910,Madre de Deus de Minas,-21.483,-44.33
1355,1,313920,Malacacheta,-17.842,-42.077
1356,1,313925,Mamonas,-15.05,-42.949
1357,6,313940,Manhuaçu,-20.258,-42.034
1358,1,313950,Manhumirim,-20.358,-41.958
1359,1,313960,Mantena,-18.782,-40.98
1360,1,313990,Maria da Fé,-22.308,-45.375
1361,6,314000,Mariana,-20.378,-43.416
1362,3,314050,Martinho Campos,-19.332,-45.237
1363,2,314053,Martins Soares,-20.257,-41.877
1364,1,314070,Mateus Leme,-19.986,-44.428
1365,1,314110,Matozinhos,-19.558,-44.081
1366,1,314140,Medina,-16.223,-41.477
1367,1,314150,Mendes Pimentel,-18.661,-41.405
1368,1,314160,Mercês,-21.194,-43.341
1369,3,314180,Minas Novas,-17.219,-42.59
1370,2,314200,Mirabela,-16.263,-44.164
1371,1,314220,Miraí,-21.195,-42.614
1372,1,314225,Miravânia,-14.741,-44.404
1373,2,314230,Moeda,-20.333,-44.053
1374,1,314260,Monsenhor Paulo,-21.758,-45.541
1375,2,314270,Montalvânia,-14.423,-44.366
1376,1,314290,Monte Azul,-15.155,-42.875
1377,4,314300,Monte Belo,-21.326,-46.368
1378,1,314310,Monte Carmelo,-18.725,-47.499
1379,13,314330,Montes Claros,-16.735,-43.862
1380,1,314340,Monte Sião,-22.433,-46.573
1381,2,314345,Montezuma,-15.172,-42.497
1382,1,314350,Morada Nova de Minas,-18.604,-45.357
1383,1,314380,Munhoz,-22.613,-46.361
1384,6,314390,Muriaé,-21.131,-42.366
1385,1,314400,Mutum,-19.8,-41.438
1386,3,314410,Muzambinho,-21.376,-46.526
1387,2,314460,Nepomuceno,-21.236,-45.236
1388,1,314470,Nova Era,-19.75,-43.038
1389,10,314480,Nova Lima,-19.986,-43.847
1390,1,314505,Nova Porteirinha,-15.803,-43.301
1391,4,314510,Nova Resende,-21.126,-46.42
1392,10,314520,Nova Serrana,-19.876,-44.984
1393,3,314530,Novo Cruzeiro,-17.468,-41.875
1394,1,314537,Novorizonte,-16.017,-42.408
1395,1,314550,Olímpio Noronha,-22.068,-45.264
1396,9,314560,Oliveira,-20.696,-44.827
1397,1,314585,Oratórios,-20.431,-42.806
1398,4,314590,Ouro Branco,-20.521,-43.692
1399,1,314600,Ouro Fino,-22.283,-46.369
1400,1,314610,Ouro Preto,-20.288,-43.508
1401,2,314640,Paineiras,-18.908,-45.532
1402,1,314650,Pains,-20.371,-45.661
1403,3,314690,Papagaios,-19.449,-44.748
1404,8,314700,Paracatu,-17.222,-46.875
1405,15,314710,Pará de Minas,-19.86,-44.608
1406,6,314720,Paraguaçu,-21.547,-45.738
1407,5,314730,Paraisópolis,-22.554,-45.78
1408,2,314740,Paraopeba,-19.274,-44.404
1409,1,314750,Passabém,-19.353,-43.136
1410,1,314760,Passa Quatro,-22.39,-44.967
1411,1,314770,Passa Tempo,-20.651,-44.496
1412,12,314790,Passos,-20.719,-46.61
1413,26,314800,Patos de Minas,-18.579,-46.518
1414,11,314810,Patrocínio,-18.944,-46.993
1415,2,314860,Peçanha,-18.549,-42.557
1416,1,314870,Pedra Azul,-16.005,-41.297
1417,1,314875,Pedra Bonita,-20.521,-42.33
1418,1,314880,Pedra do Anta,-20.597,-42.714
1419,2,314910,Pedralva,-22.243,-45.466
1420,2,314930,Pedro Leopoldo,-19.618,-44.043
1421,3,314980,Perdizes,-19.353,-47.293
1422,2,314990,Perdões,-21.091,-45.091
1423,1,315030,Piedade do Rio Grande,-21.469,-44.196
1424,2,315050,Pimenta,-20.484,-45.799
1425,2,315060,Piracema,-20.508,-44.483
1426,1,315070,Pirajuba,-19.907,-48.701
1427,2,315080,Piranga,-20.685,-43.3
1428,3,315100,Piranguinho,-22.401,-45.532
1429,2,315120,Pirapora,-17.345,-44.942
1430,1,315130,Piraúba,-21.276,-43.026
1431,3,315140,Pitangui,-19.683,-44.89
1432,2,315150,Piumhi,-20.465,-45.958
1433,3,315170,Poço Fundo,-21.781,-45.965
1434,15,315180,Poços de Caldas,-21.788,-46.561
1435,4,315200,Pompéu,-19.224,-44.935
1436,4,315210,Ponte Nova,-20.416,-42.909
1437,1,315217,Ponto dos Volantes,-16.753,-41.504
1438,3,315220,Porteirinha,-15.743,-43.028
1439,1,315240,Poté,-17.807,-41.786
1440,10,315250,Pouso Alegre,-22.23,-45.936
1441,1,315260,Pouso Alto,-22.194,-44.973
1442,1,315270,Prados,-21.058,-44.08
1443,5,315280,Prata,-19.307,-48.924
1444,1,315310,Presidente Bernardes,-20.769,-43.188
1445,1,315330,Presidente Kubitschek,-18.614,-43.562
1446,8,315340,Presidente Olegário,-18.418,-46.418
1447,4,315360,Prudente de Morais,-19.482,-44.155
1448,1,315380,Queluzito,-20.74,-43.884
1449,3,315400,Raul Soares,-20.102,-42.453
1450,1,315430,Resplendor,-19.326,-41.255
1451,1,315440,Ressaquinha,-21.063,-43.763
1452,2,315445,Riachinho,-16.23,-45.992
1453,13,315460,Ribeirão das Neves,-19.767,-44.087
1454,2,315470,Ribeirão Vermelho,-21.191,-45.062
1455,1,315490,Rio Casca,-20.226,-42.651
1456,1,315540,Rio Novo,-21.458,-43.125
1457,2,315560,Rio Pardo de Minas,-15.61,-42.54
1458,1,315570,Rio Piracicaba,-19.929,-43.174
1459,4,315580,Rio Pomba,-21.275,-43.179
1460,2,315610,Ritápolis,-21.022,-44.318
1461,1,315640,Romaria,-18.883,-47.586
1462,3,315670,Sabará,-19.886,-43.807
1463,1,315680,Sabinópolis,-18.666,-43.084
1464,4,315700,Salinas,-16.17,-42.29
1465,1,315710,Salto da Divisa,-16.003,-39.947
1466,3,315720,Santa Bárbara,-19.959,-43.415
1467,1,315725,Santa Bárbara do Leste,-19.978,-42.14
1468,1,315730,Santa Bárbara do Tugúrio,-21.246,-43.559
1469,1,315770,Santa Juliana,-19.309,-47.525
1470,16,315780,Santa Luzia,-19.77,-43.851
1471,2,315800,Santa Maria de Itabira,-19.449,-43.113
1472,1,315820,Santa Maria do Suaçuí,-18.19,-42.414
1473,1,315830,Santana da Vargem,-21.249,-45.507
1474,2,315850,Santana de Pirapama,-19.006,-44.043
1475,1,315895,Santana do Paraíso,-19.364,-42.569
1476,1,315900,Santana do Riacho,-19.169,-43.714
1477,2,315920,Santa Rita de Caldas,-22.029,-46.337
1478,2,315960,Santa Rita do Sapucaí,-22.252,-45.703
1479,1,315990,Santo Antônio do Amparo,-20.946,-44.919
1480,3,316040,Santo Antônio do Monte,-20.087,-45.294
1481,1,316060,Santo Hipólito,-18.297,-44.223
1482,2,316070,Santos Dumont,-21.457,-43.553
1483,1,316080,São Bento Abade,-21.582,-45.076
1484,2,316105,São Félix de Minas,-18.591,-41.486
1485,3,316110,São Francisco,-15.949,-44.864
1486,1,316130,São Francisco de Sales,-19.863,-49.774
1487,1,316140,São Francisco do Glória,-20.789,-42.268
1488,1,316150,São Geraldo,-20.923,-42.834
1489,1,316180,São Gonçalo do Pará,-19.983,-44.859
1490,2,316190,São Gonçalo do Rio Abaixo,-19.826,-43.362
1491,1,316210,São Gotardo,-19.311,-46.049
1492,1,316240,São João da Ponte,-15.929,-44.008
1493,5,316245,São João das Missões,-14.884,-44.091
1494,9,316250,São João del Rei,-21.136,-44.262
1495,1,316255,São João do Manhuaçu,-20.394,-42.151
1496,1,316260,São João do Oriente,-19.339,-42.158
1497,1,316270,São João do Paraíso,-15.314,-42.014
1498,2,316290,São João Nepomuceno,-21.54,-43.011
1499,1,316292,São Joaquim de Bicas,-20.049,-44.274
1500,1,316294,São José da Barra,-20.718,-46.311
1501,1,316350,São José do Jacuri,-18.275,-42.67
1502,8,316370,São Lourenço,-22.116,-45.054
1503,1,316380,São Miguel do Anta,-20.707,-42.719
1504,1,316400,São Pedro dos Ferros,-20.17,-42.524
1505,2,316430,São Roque de Minas,-20.245,-46.366
1506,1,316443,São Sebastião da Vargem Alegre,-21.072,-42.636
1507,1,316450,São Sebastião do Maranhão,-18.084,-42.571
1508,1,316460,São Sebastião do Oeste,-20.276,-45.005
1509,15,316470,São Sebastião do Paraíso,-20.917,-46.991
1510,2,316480,São Sebastião do Rio Preto,-19.292,-43.174
1511,1,316490,São Sebastião do Rio Verde,-22.218,-44.976
1512,2,316500,São Tiago,-20.913,-44.509
1513,1,316520,São Thomé das Letras,-21.722,-44.985
1514,1,316530,São Vicente de Minas,-21.713,-44.444
1515,1,316540,Sapucaí-Mirim,-22.748,-45.743
1516,2,316553,Sarzedo,-20.035,-44.145
1517,2,316557,Senador Amaral,-22.587,-46.177
1518,1,316580,Senador José Bento,-22.164,-46.179
1519,1,316590,Senador Modestino Gonçalves,-17.947,-43.225
1520,1,316620,Senhora dos Remédios,-21.028,-43.583
1521,1,316660,Serra da Saudade,-19.438,-45.796
1522,1,316670,Serra dos Aimorés,-17.783,-40.248
1523,2,316680,Serra do Salitre,-19.111,-46.69
1524,4,316690,Serrania,-21.548,-46.04
1525,1,316695,Serranópolis de Minas,-15.829,-42.871
1526,17,316720,Sete Lagoas,-19.466,-44.247
1527,1,316750,Simão Pereira,-21.964,-43.312
1528,2,316760,Simonésia,-20.124,-42.001
1529,2,316790,Tabuleiro,-21.359,-43.248
1530,1,316800,Taiobeiras,-15.808,-42.233
1531,1,316810,Tapira,-19.922,-46.823
1532,1,316840,Tarumirim,-19.281,-42.007
1533,13,316860,Teófilo Otoni,-17.858,-41.505
1534,4,316870,Timóteo,-19.583,-42.644
1535,2,316890,Tiros,-19.004,-45.964
1536,2,316900,Tocantins,-21.175,-43.018
1537,1,316905,Tocos do Moji,-22.371,-46.096
1538,2,316910,Toledo,-22.743,-46.372
1539,7,316930,Três Corações,-21.697,-45.253
1540,4,316935,Três Marias,-18.206,-45.242
1541,2,316940,Três Pontas,-21.367,-45.513
1542,1,316970,Turmalina,-17.286,-42.73
1543,1,316980,Turvolândia,-21.876,-45.787
1544,6,316990,Ubá,-21.12,-42.943
1545,1,317000,Ubaí,-16.285,-44.778
1546,10,317010,Uberaba,-19.748,-47.932
1547,48,317020,Uberlândia,-18.919,-48.277
1548,4,317040,Unaí,-16.358,-46.906
1549,1,317050,Urucânia,-20.351,-42.739
1550,2,317052,Urucuia,-16.133,-45.742
1551,10,317070,Varginha,-21.551,-45.43
1552,3,317080,Várzea da Palma,-17.598,-44.731
1553,1,317090,Varzelândia,-15.701,-44.028
1554,1,317103,Verdelândia,-15.589,-43.603
1555,1,317115,Vermelho Novo,-20.036,-42.267
1556,6,317120,Vespasiano,-19.692,-43.923
1557,9,317130,Viçosa,-20.754,-42.882
1558,4,317170,Virgínia,-22.333,-45.092
1559,2,317180,Virginópolis,-18.823,-42.704
1560,4,317200,Visconde do Rio Branco,-21.01,-42.841
1561,1,317220,Wenceslau Braz,-22.534,-45.363
1562,4,320010,Afonso Cláudio,-20.074,-41.124
1563,1,320020,Alegre,-20.764,-41.533
1564,1,320030,Alfredo Chaves,-20.635,-40.75
1565,3,320060,Aracruz,-19.82,-40.273
1566,4,320080,Baixo Guandu,-19.519,-41.016
1567,5,320090,Barra de São Francisco,-18.755,-40.891
1568,2,320115,Brejetuba,-20.146,-41.29
1569,10,320120,Cachoeiro de Itapemirim,-20.849,-41.113
1570,18,320130,Cariacica,-20.264,-40.42
1571,1,320140,Castelo,-20.604,-41.185
1572,5,320150,Colatina,-19.539,-40.631
1573,1,320170,Conceição do Castelo,-20.368,-41.244
1574,1,320180,Divino de São Lourenço,-20.62,-41.686
1575,1,320190,Domingos Martins,-20.363,-40.659
1576,2,320210,Ecoporanga,-18.373,-40.831
1577,1,320220,Fundão,-19.933,-40.407
1578,2,320230,Guaçuí,-20.776,-41.679
1579,5,320240,Guarapari,-20.658,-40.511
1580,2,320245,Ibatiba,-20.234,-41.511
1581,1,320250,Ibiraçu,-19.832,-40.37
1582,1,320260,Iconha,-20.793,-40.811
1583,1,320265,Irupi,-20.345,-41.641
1584,1,320270,Itaguaçu,-19.802,-40.856
1585,1,320280,Itapemirim,-21.011,-40.834
1586,1,320290,Itarana,-19.874,-40.875
1587,3,320300,Iúna,-20.346,-41.536
1588,2,320305,Jaguaré,-18.906,-40.076
1589,12,320320,Linhares,-19.391,-40.072
1590,1,320334,Marechal Floriano,-20.413,-40.683
1591,1,320335,Marilândia,-19.413,-40.542
1592,1,320360,Mucurici,-18.093,-40.516
1593,2,320370,Muniz Freire,-20.464,-41.413
1594,1,320380,Muqui,-20.952,-41.346
1595,3,320390,Nova Venécia,-18.711,-40.401
1596,1,320400,Pancas,-19.225,-40.851
1597,2,320405,Pedro Canário,-18.03,-40.151
1598,1,320425,Ponto Belo,-18.124,-40.541
1599,1,320435,Rio Bananal,-19.265,-40.333
1600,1,320440,Rio Novo do Sul,-20.863,-40.936
1601,1,320450,Santa Leopoldina,-20.101,-40.53
1602,6,320455,Santa Maria de Jetibá,-20.041,-40.746
1603,4,320460,Santa Teresa,-19.936,-40.6
1604,1,320470,São Gabriel da Palha,-19.017,-40.536
1605,6,320490,São Mateus,-18.716,-39.859
1606,1,320495,São Roque do Canaã,-19.739,-40.657
1607,26,320500,Serra,-20.129,-40.308
1608,3,320501,Sooretama,-19.197,-40.098
1609,1,320503,Vargem Alta,-20.671,-41.007
1610,4,320506,Venda Nova do Imigrante,-20.34,-41.135
1611,3,320510,Viana,-20.39,-40.496
1612,1,320515,Vila Pavão,-18.615,-40.611
1613,2,320517,Vila Valério,-18.998,-40.389
1614,12,320520,Vila Velha,-20.33,-40.292
1615,30,320530,Vitória,-20.319,-40.338
1616,8,330010,Angra dos Reis,-23.007,-44.318
1617,2,330015,Aperibé,-21.621,-42.103
1618,6,330020,Araruama,-22.873,-42.343
1619,3,330023,Armação dos Búzios,-22.747,-41.882
1620,12,330040,Barra Mansa,-22.544,-44.171
1621,8,330045,Belford Roxo,-22.764,-43.399
1622,1,330050,Bom Jardim,-22.152,-42.419
1623,1,330060,Bom Jesus do Itabapoana,-21.134,-41.68
1624,11,330070,Cabo Frio,-22.879,-42.019
1625,5,330080,Cachoeiras de Macacu,-22.463,-42.653
1626,1,330090,Cambuci,-21.575,-41.911
1627,1,330095,Comendador Levy Gasparian,-22.029,-43.205
1628,23,330100,Campos dos Goytacazes,-21.754,-41.324
1629,2,330110,Cantagalo,-21.981,-42.368
1630,1,330115,Cardoso Moreira,-21.488,-41.616
1631,1,330130,Casimiro de Abreu,-22.481,-42.204
1632,1,330150,Cordeiro,-22.029,-42.361
1633,1,330160,Duas Barras,-22.051,-42.522
1634,27,330170,Duque de Caxias,-22.786,-43.312
1635,2,330185,Guapimirim,-22.537,-42.982
1636,4,330187,Iguaba Grande,-22.839,-42.229
1637,7,330190,Itaboraí,-22.744,-42.859
1638,3,330200,Itaguaí,-22.852,-43.775
1639,3,330220,Itaperuna,-21.205,-41.888
1640,4,330225,Itatiaia,-22.496,-44.563
1641,3,330227,Japeri,-22.643,-43.653
1642,2,330230,Laje do Muriaé,-21.206,-42.123
1643,11,330240,Macaé,-22.371,-41.787
1644,9,330250,Magé,-22.653,-43.041
1645,4,330270,Maricá,-22.919,-42.819
1646,2,330285,Mesquita,-22.782,-43.429
1647,2,330300,Miracema,-21.412,-42.197
1648,3,330320,Nilópolis,-22.808,-43.414
1649,25,330330,Niterói,-22.883,-43.104
1650,11,330340,Nova Friburgo,-22.282,-42.531
1651,13,330350,Nova Iguaçu,-22.759,-43.451
1652,11,330390,Petrópolis,-22.505,-43.179
1653,1,330395,Pinheiral,-22.513,-44.001
1654,2,330411,Porto Real,-22.42,-44.29
1655,2,330414,Queimados,-22.716,-43.555
1656,1,330415,Quissamã,-22.107,-41.472
1657,4,330420,Resende,-22.469,-44.447
1658,1,330430,Rio Bonito,-22.708,-42.626
1659,2,330440,Rio Claro,-22.723,-44.136
1660,6,330452,Rio das Ostras,-22.527,-41.945
1661,257,330455,Rio de Janeiro,-22.903,-43.208
1662,1,330460,Santa Maria Madalena,-21.955,-42.008
1663,7,330475,São Francisco de Itabapoana,-21.47,-41.119
1664,32,330490,São Gonçalo,-22.827,-43.054
1665,4,330500,São João da Barra,-21.64,-41.051
1666,11,330510,São João de Meriti,-22.804,-43.372
1667,2,330515,São José do Vale do Rio Preto,-22.151,-42.924
1668,6,330520,São Pedro da Aldeia,-22.839,-42.103
1669,1,330530,São Sebastião do Alto,-21.957,-42.135
1670,3,330540,Sapucaia,-21.995,-42.914
1671,1,330550,Saquarema,-22.92,-42.51
1672,1,330555,Seropédica,-22.744,-43.708
1673,1,330560,Silva Jardim,-22.651,-42.392
1674,1,330575,Tanguá,-22.73,-42.714
1675,11,330580,Teresópolis,-22.412,-42.966
1676,2,330600,Três Rios,-22.117,-43.209
1677,2,330610,Valença,-22.246,-43.7
1678,2,330620,Vassouras,-22.404,-43.663
1679,9,330630,Volta Redonda,-22.523,-44.104
1680,6,350010,Adamantina,-21.685,-51.073
1681,1,350030,Aguaí,-22.059,-46.979
1682,1,350050,Águas de Lindóia,-22.476,-46.633
1683,1,350055,Águas de Santa Bárbara,-22.881,-49.239
1684,7,350070,Agudos,-22.469,-48.988
1685,1,350075,Alambari,-23.551,-47.899
1686,2,350080,Alfredo Marcondes,-21.955,-51.413
1687,1,350090,Altair,-20.524,-49.059
1688,3,350100,Altinópolis,-21.026,-47.374
1689,1,350120,Álvares Florence,-20.321,-49.911
1690,1,350130,Álvares Machado,-22.079,-51.472
1691,11,350160,Americana,-22.739,-47.331
1692,2,350170,Américo Brasiliense,-21.724,-48.102
1693,8,350190,Amparo,-22.701,-46.764
1694,3,350210,Andradina,-20.896,-51.379
1695,1,350230,Anhembi,-22.789,-48.127
1696,2,350250,Aparecida,-22.847,-45.23
1697,5,350270,Apiaí,-24.509,-48.843
1698,17,350280,Araçatuba,-21.209,-50.433
1699,12,350320,Araraquara,-21.794,-48.176
1700,12,350330,Araras,-22.357,-47.384
1701,1,350370,Ariranha,-21.188,-48.787
1702,2,350380,Artur Nogueira,-22.573,-47.173
1703,9,350390,Arujá,-23.396,-46.321
1704,7,350400,Assis,-22.662,-50.412
1705,12,350410,Atibaia,-23.117,-46.55
1706,2,350420,Auriflama,-20.686,-50.555
1707,9,350450,Avaré,-23.099,-48.926
1708,1,350460,Bady Bassitt,-20.918,-49.445
1709,1,350470,Balbinos,-21.9,-49.357
1710,1,350490,Bananal,-22.684,-44.323
1711,1,350520,Bariri,-22.074,-48.74
1712,2,350530,Barra Bonita,-22.495,-48.558
1713,15,350550,Barretos,-20.557,-48.568
1714,2,350560,Barrinha,-21.194,-48.164
1715,15,350570,Barueri,-23.511,-46.876
1716,3,350590,Batatais,-20.891,-47.585
1717,32,350600,Bauru,-22.315,-49.061
1718,2,350610,Bebedouro,-20.949,-48.479
1719,4,350630,Bernardino de Campos,-23.013,-49.474
1720,2,350635,Bertioga,-23.854,-46.139
1721,4,350650,Birigui,-21.289,-50.34
1722,1,350670,Boa Esperança do Sul,-21.993,-48.391
1723,2,350690,Bofete,-23.102,-48.258
1724,3,350700,Boituva,-23.283,-47.672
1725,11,350750,Botucatu,-22.886,-48.445
1726,19,350760,Bragança Paulista,-22.952,-46.542
1727,2,350790,Brotas,-22.284,-48.127
1728,2,350800,Buri,-23.798,-48.593
1729,3,350840,Cabreúva,-23.308,-47.133
1730,1,350850,Caçapava,-23.101,-45.707
1731,1,350860,Cachoeira Paulista,-22.665,-45.009
1732,1,350870,Caconde,-21.529,-46.644
1733,1,350890,Caiabu,-22.012,-51.236
1734,5,350900,Caieiras,-23.364,-46.741
1735,1,350910,Caiuá,-21.832,-51.998
1736,5,350920,Cajamar,-23.356,-46.877
1737,2,350925,Cajati,-24.736,-48.123
1738,2,350940,Cajuru,-21.275,-47.304
1739,67,350950,Campinas,-22.906,-47.061
1740,8,350960,Campo Limpo Paulista,-23.206,-46.784
1741,1,350970,Campos do Jordão,-22.739,-45.591
1742,1,350980,Campos Novos Paulista,-22.603,-50.003
1743,2,351020,Capão Bonito,-24.006,-48.349
1744,3,351040,Capivari,-22.995,-47.508
1745,9,351050,Caraguatatuba,-23.62,-45.413
1746,19,351060,Carapicuíba,-23.523,-46.836
1747,3,351070,Cardoso,-20.082,-49.914
1748,2,351080,Casa Branca,-21.774,-47.086
1749,12,351110,Catanduva,-21.138,-48.973
1750,3,351140,Cerqueira César,-23.036,-49.166
1751,1,351150,Cerquilho,-23.165,-47.744
1752,1,351160,Cesário Lange,-23.227,-47.953
1753,2,351220,Conchal,-22.33,-47.173
1754,2,351240,Cordeirópolis,-22.482,-47.457
1755,1,351270,Corumbataí,-22.22,-47.626
1756,3,351280,Cosmópolis,-22.646,-47.196
1757,14,351300,Cotia,-23.604,-46.919
1758,1,351310,Cravinhos,-21.34,-47.729
1759,1,351320,Cristais Paulista,-20.397,-47.42
1760,1,351330,Cruzália,-22.677,-50.794
1761,8,351340,Cruzeiro,-22.576,-44.963
1762,3,351350,Cubatão,-23.895,-46.425
1763,2,351360,Cunha,-23.074,-44.96
1764,21,351380,Diadema,-23.686,-46.623
1765,4,351410,Dois Córregos,-22.366,-48.38
1766,1,351430,Dourado,-22.1,-48.318
1767,2,351440,Dracena,-21.483,-51.533
1768,1,351450,Duartina,-22.414,-49.404
1769,1,351480,Eldorado,-24.52,-48.108
1770,1,351490,Elias Fausto,-23.043,-47.374
1771,1,351500,Embu,-23.649,-46.852
1772,2,351510,Embu-Guaçu,-23.832,-46.811
1773,3,351515,Engenheiro Coelho,-22.488,-47.215
1774,6,351518,Espírito Santo do Pinhal,-22.191,-46.741
1775,1,351520,Estrela d'Oeste,-20.288,-50.401
1776,6,351550,Fernandópolis,-20.284,-50.246
1777,9,351570,Ferraz de Vasconcelos,-23.541,-46.369
1778,1,351600,Flórida Paulista,-21.615,-51.174
1779,22,351620,Franca,-20.539,-47.401
1780,6,351630,Francisco Morato,-23.282,-46.745
1781,3,351640,Franco da Rocha,-23.322,-46.727
1782,3,351670,Garça,-22.211,-49.656
1783,1,351690,General Salgado,-20.648,-50.361
1784,2,351700,Getulina,-21.799,-49.929
1785,1,351710,Glicério,-21.384,-50.211
1786,3,351740,Guaíra,-20.318,-48.311
1787,1,351770,Guará,-20.428,-47.824
1788,1,351810,Guarantã,-21.895,-49.59
1789,5,351840,Guaratinguetá,-22.816,-45.193
1790,1,351850,Guareí,-23.373,-48.184
1791,2,351860,Guariba,-21.36,-48.228
1792,11,351870,Guarujá,-23.993,-46.256
1793,45,351880,Guarulhos,-23.463,-46.533
1794,1,351885,Guatapará,-21.497,-48.038
1795,1,351890,Guzolândia,-20.65,-50.662
1796,10,351907,Hortolândia,-22.858,-47.22
1797,1,351910,Iacanga,-21.89,-49.025
1798,2,351925,Iaras,-22.871,-49.163
1799,2,351930,Ibaté,-21.955,-47.997
1800,5,351960,Ibitinga,-21.758,-48.829
1801,9,351970,Ibiúna,-23.656,-47.223
1802,4,352010,Igarapava,-20.038,-47.747
1803,1,352020,Igaratá,-23.204,-46.156
1804,1,352030,Iguape,-24.708,-47.555
1805,2,352044,Ilha Solteira,-20.433,-51.343
1806,9,352050,Indaiatuba,-23.09,-47.218
1807,1,352080,Inúbia Paulista,-21.77,-50.962
1808,2,352100,Iperó,-23.35,-47.689
1809,1,352110,Ipeúna,-22.436,-47.719
1810,2,352140,Iracemápolis,-22.581,-47.519
1811,1,352160,Irapuru,-21.571,-51.345
1812,2,352170,Itaberá,-23.862,-49.137
1813,4,352180,Itaí,-23.418,-49.091
1814,1,352190,Itajobi,-21.318,-49.054
1815,1,352200,Itaju,-21.981,-48.805
1816,12,352210,Itanhaém,-24.183,-46.789
1817,4,352220,Itapecerica da Serra,-23.717,-46.849
1818,18,352230,Itapetininga,-23.592,-48.053
1819,8,352240,Itapeva,-23.982,-48.876
1820,6,352250,Itapevi,-23.549,-46.934
1821,17,352260,Itapira,-22.436,-46.822
1822,5,352270,Itápolis,-21.596,-48.813
1823,1,352280,Itaporanga,-23.708,-49.49
1824,16,352310,Itaquaquecetuba,-23.486,-46.348
1825,7,352320,Itararé,-24.115,-49.341
1826,6,352340,Itatiba,-23.006,-46.839
1827,5,352350,Itatinga,-23.102,-48.616
1828,1,352360,Itirapina,-22.253,-47.823
1829,7,352390,Itu,-23.264,-47.299
1830,2,352400,Itupeva,-23.153,-47.058
1831,4,352410,Ituverava,-20.339,-47.781
1832,5,352430,Jaboticabal,-21.255,-48.322
1833,18,352440,Jacareí,-23.305,-45.966
1834,1,352460,Jacupiranga,-24.693,-48.002
1835,2,352470,Jaguariúna,-22.706,-46.986
1836,4,352480,Jales,-20.269,-50.546
1837,3,352500,Jandira,-23.528,-46.903
1838,2,352510,Jardinópolis,-21.018,-47.764
1839,2,352520,Jarinu,-23.101,-46.728
1840,13,352530,Jaú,-22.296,-48.558
1841,2,352570,José Bonifácio,-21.053,-49.688
1842,1,352580,Júlio Mesquita,-22.009,-49.787
1843,22,352590,Jundiaí,-23.186,-46.884
1844,1,352620,Juquitiba,-23.932,-47.068
1845,1,352640,Laranjal Paulista,-23.05,-47.837
1846,4,352670,Leme,-22.186,-47.39
1847,2,352680,Lençóis Paulista,-22.599,-48.8
1848,31,352690,Limeira,-22.565,-47.402
1849,5,352710,Lins,-21.679,-49.743
1850,8,352720,Lorena,-22.731,-45.125
1851,3,352730,Louveira,-23.086,-46.951
1852,1,352760,Luís Antônio,-21.555,-47.704
1853,1,352800,Macatuba,-22.502,-48.711
1854,4,352840,Mairinque,-23.546,-47.183
1855,6,352850,Mairiporã,-23.319,-46.587
1856,20,352900,Marília,-22.214,-49.946
1857,2,352920,Martinópolis,-22.146,-51.171
1858,2,352930,Matão,-21.603,-48.366
1859,10,352940,Mauá,-23.668,-46.461
1860,1,352970,Miguelópolis,-20.179,-48.032
1861,1,352980,Mineiros do Tietê,-22.409,-48.451
1862,1,352990,Miracatu,-24.281,-47.46
1863,1,353030,Mirassol,-20.819,-49.521
1864,4,353050,Mococa,-21.468,-47.005
1865,35,353060,Mogi das Cruzes,-23.523,-46.188
1866,12,353070,Mogi Guaçu,-22.372,-46.942
1867,5,353080,Moji Mirim,-22.432,-46.958
1868,1,353090,Mombuca,-22.929,-47.566
1869,6,353110,Mongaguá,-24.087,-46.629
1870,3,353130,Monte Alto,-21.261,-48.496
1871,1,353140,Monte Aprazível,-20.773,-49.714
1872,3,353150,Monte Azul Paulista,-20.907,-48.641
1873,1,353160,Monte Castelo,-21.299,-51.569
1874,3,353180,Monte Mor,-22.947,-47.316
1875,1,353190,Morro Agudo,-20.731,-48.058
1876,1,353200,Morungaba,-22.88,-46.792
1877,1,353205,Motuca,-21.508,-48.151
1878,1,353240,Nazaré Paulista,-23.181,-46.395
1879,1,353260,Nhandeara,-20.694,-50.038
1880,1,353340,Nova Odessa,-22.778,-47.296
1881,2,353350,Novo Horizonte,-21.468,-49.221
1882,2,353390,Olímpia,-20.737,-48.915
1883,1,353430,Orlândia,-20.72,-47.887
1884,35,353440,Osasco,-23.533,-46.792
1885,1,353460,Osvaldo Cruz,-21.797,-50.89
1886,11,353470,Ourinhos,-22.979,-49.871
1887,1,353480,Ouro Verde,-21.489,-51.7
1888,2,353490,Pacaembu,-21.562,-51.261
1889,1,353510,Palmares Paulista,-21.083,-48.801
1890,1,353520,Palmeira d'Oeste,-20.416,-50.762
1891,1,353530,Palmital,-22.789,-50.218
1892,1,353540,Panorama,-21.356,-51.86
1893,1,353550,Paraguaçu Paulista,-22.413,-50.576
1894,1,353560,Paraibuna,-23.386,-45.662
1895,1,353600,Parapuã,-21.783,-50.793
1896,6,353620,Pariquera-Açu,-24.715,-47.881
1897,2,353640,Paulicéia,-21.318,-51.831
1898,5,353650,Paulínia,-22.761,-47.154
1899,3,353670,Pederneiras,-22.352,-48.775
1900,1,353680,Pedra Bela,-22.793,-46.443
1901,1,353700,Pedregulho,-20.257,-47.477
1902,4,353710,Pedreira,-22.742,-46.901
1903,10,353730,Penápolis,-21.42,-50.078
1904,4,353760,Peruíbe,-24.32,-46.998
1905,6,353780,Piedade,-23.712,-47.428
1906,8,353800,Pindamonhangaba,-22.924,-45.462
1907,1,353810,Pindorama,-21.186,-48.907
1908,1,353820,Pinhalzinho,-22.779,-46.591
1909,1,353830,Piquerobi,-21.868,-51.729
1910,2,353850,Piquete,-22.614,-45.176
1911,2,353860,Piracaia,-23.054,-46.358
1912,24,353870,Piracicaba,-22.725,-47.649
1913,5,353880,Piraju,-23.194,-49.384
1914,4,353890,Pirajuí,-21.999,-49.457
1915,1,353910,Pirapora do Bom Jesus,-23.397,-47.002
1916,1,353920,Pirapozinho,-22.275,-51.5
1917,3,353930,Pirassununga,-21.996,-47.426
1918,3,353950,Pitangueiras,-21.009,-48.222
1919,2,353980,Poá,-23.528,-46.345
1920,1,354000,Pompéia,-22.109,-50.172
1921,1,354010,Pongaí,-21.736,-49.367
1922,5,354020,Pontal,-21.023,-48.037
1923,1,354040,Populina,-19.954,-50.538
1924,6,354060,Porto Feliz,-23.215,-47.524
1925,5,354070,Porto Ferreira,-21.854,-47.479
1926,1,354075,Potim,-22.843,-45.251
1927,2,354080,Potirendaba,-21.043,-49.377
1928,24,354100,Praia Grande,-24.006,-46.403
1929,1,354105,Pratânia,-22.808,-48.666
1930,1,354120,Presidente Bernardes,-22.006,-51.553
1931,3,354130,Presidente Epitácio,-21.763,-52.116
1932,10,354140,Presidente Prudente,-22.126,-51.389
1933,4,354150,Presidente Venceslau,-21.876,-51.844
1934,5,354160,Promissão,-21.537,-49.858
1935,1,354165,Quadra,-23.299,-48.055
1936,1,354220,Rancharia,-22.229,-50.893
1937,1,354240,Regente Feijó,-22.221,-51.303
1938,1,354250,Reginópolis,-21.888,-49.225
1939,1,354260,Registro,-24.488,-47.844
1940,2,354290,Ribeirão Bonito,-22.067,-48.176
1941,2,354300,Ribeirão Branco,-24.221,-48.766
1942,1,354310,Ribeirão Corrente,-20.457,-47.59
1943,1,354325,Ribeirão Grande,-24.099,-48.365
1944,3,354330,Ribeirão Pires,-23.711,-46.413
1945,55,354340,Ribeirão Preto,-21.178,-47.81
1946,15,354390,Rio Claro,-22.411,-47.561
1947,2,354400,Rio das Pedras,-22.843,-47.606
1948,1,354410,Rio Grande da Serra,-23.744,-46.398
1949,1,354420,Riolândia,-19.99,-49.681
1950,3,354425,Rosana,-22.58,-53.059
1951,1,354460,Sabino,-21.46,-49.578
1952,2,354490,Sales Oliveira,-20.772,-47.838
1953,1,354500,Salesópolis,-23.532,-45.846
1954,5,354520,Salto,-23.201,-47.287
1955,3,354530,Salto de Pirapora,-23.649,-47.573
1956,1,354540,Salto Grande,-22.893,-49.986
1957,3,354560,Santa Adélia,-21.243,-48.804
1958,5,354580,Santa Bárbara d'Oeste,-22.754,-47.414
1959,1,354600,Santa Branca,-23.397,-45.884
1960,1,354610,Santa Clara d'Oeste,-20.089,-50.954
1961,1,354630,Santa Cruz das Palmeiras,-21.827,-47.249
1962,3,354640,Santa Cruz do Rio Pardo,-22.899,-49.633
1963,1,354650,Santa Ernestina,-21.463,-48.391
1964,1,354660,Santa Fé do Sul,-20.211,-50.926
1965,1,354670,Santa Gertrudes,-22.457,-47.53
1966,3,354680,Santa Isabel,-23.316,-46.221
1967,1,354690,Santa Lúcia,-21.685,-48.084
1968,7,354730,Santana de Parnaíba,-23.444,-46.918
1969,2,354750,Santa Rita do Passa Quatro,-21.71,-47.478
1970,2,354770,Santo Anastácio,-21.977,-51.652
1971,35,354780,Santo André,-23.664,-46.538
1972,3,354790,Santo Antônio da Alegria,-21.087,-47.151
1973,2,354800,Santo Antônio de Posse,-22.606,-46.919
1974,2,354805,Santo Antônio do Aracanguá,-20.937,-50.496
1975,28,354850,Santos,-23.961,-46.334
1976,4,354860,São Bento do Sapucaí,-22.689,-45.731
1977,37,354870,São Bernardo do Campo,-23.694,-46.565
1978,6,354880,São Caetano do Sul,-23.623,-46.551
1979,16,354890,São Carlos,-22.018,-47.891
1980,7,354910,São João da Boa Vista,-21.969,-46.798
1981,1,354920,São João das Duas Pontes,-20.389,-50.378
1982,1,354930,São João do Pau d'Alho,-21.268,-51.666
1983,3,354950,São José da Bela Vista,-20.593,-47.64
1984,2,354960,São José do Barreiro,-22.645,-44.578
1985,6,354970,São José do Rio Pardo,-21.596,-46.889
1986,29,354980,São José do Rio Preto,-20.82,-49.379
1987,20,354990,São José dos Campos,-23.179,-45.887
1988,1,354995,São Lourenço da Serra,-23.853,-46.943
1989,2,355000,São Luís do Paraitinga,-23.222,-45.31
1990,3,355010,São Manuel,-22.731,-48.571
1991,445,355030,São Paulo,-23.548,-46.636
1992,2,355040,São Pedro,-22.549,-47.914
1993,10,355060,São Roque,-23.529,-47.135
1994,7,355070,São Sebastião,-23.76,-45.41
1995,1,355080,São Sebastião da Grama,-21.711,-46.821
1996,2,355090,São Simão,-21.479,-47.551
1997,8,355100,São Vicente,-23.963,-46.392
1998,3,355110,Sarapuí,-23.641,-47.825
1999,1,355120,Sarutaiá,-23.273,-49.48
2000,1,355130,Sebastianópolis do Sul,-20.655,-49.921
2001,1,355140,Serra Azul,-21.311,-47.566
2002,4,355150,Serrana,-21.211,-47.596
2003,1,355160,Serra Negra,-22.612,-46.701
2004,9,355170,Sertãozinho,-21.138,-47.99
2005,2,355180,Sete Barras,-24.388,-47.926
2006,1,355210,Socorro,-22.591,-46.529
2007,43,355220,Sorocaba,-23.502,-47.458
2008,8,355240,Sumaré,-22.822,-47.267
2009,18,355250,Suzano,-23.543,-46.311
2010,2,355270,Tabatinga,-21.717,-48.688
2011,7,355280,Taboão da Serra,-23.602,-46.753
2012,1,355300,Taguaí,-23.452,-49.409
2013,2,355330,Tambaú,-21.705,-47.274
2014,1,355340,Tanabi,-20.626,-49.649
2015,1,355365,Taquaral,-21.072,-48.41
2016,6,355370,Taquaritinga,-21.406,-48.505
2017,6,355380,Taquarituba,-23.533,-49.244
2018,1,355385,Taquarivaí,-23.924,-48.693
2019,10,355400,Tatuí,-23.356,-47.857
2020,12,355410,Taubaté,-23.026,-45.555
2021,1,355430,Teodoro Sampaio,-22.533,-52.168
2022,2,355480,Tremembé,-22.958,-45.549
2023,1,355495,Tuiuti,-22.816,-46.694
2024,6,355500,Tupã,-21.935,-50.514
2025,3,355510,Tupi Paulista,-21.381,-51.571
2026,1,355520,Turiúba,-20.933,-50.108
2027,6,355540,Ubatuba,-23.434,-45.071
2028,2,355580,Urânia,-20.246,-50.643
2029,1,355610,Valentim Gentil,-20.422,-50.088
2030,5,355620,Valinhos,-22.971,-46.996
2031,1,355630,Valparaíso,-21.228,-50.868
2032,3,355645,Vargem Grande Paulista,-23.603,-47.026
2033,4,355650,Várzea Paulista,-23.211,-46.828
2034,3,355670,Vinhedo,-23.03,-46.975
2035,1,355680,Viradouro,-20.873,-48.297
2036,5,355700,Votorantim,-23.547,-47.438
2037,11,355710,Votuporanga,-20.423,-49.973
2038,2,355720,Chavantes,-23.039,-49.709
2039,1,410010,Abatiá,-23.304,-50.313
2040,5,410040,Almirante Tamandaré,-25.325,-49.31
2041,1,410050,Altônia,-23.874,-53.902
2042,1,410090,Amaporã,-23.096,-52.788
2043,3,410100,Ampére,-25.915,-53.473
2044,1,410130,Antônio Olinto,-25.986,-50.197
2045,13,410140,Apucarana,-23.551,-51.461
2046,10,410150,Arapongas,-23.419,-51.424
2047,13,410180,Araucária,-25.593,-49.41
2048,2,410190,Assaí,-23.373,-50.841
2049,2,410200,Assis Chateaubriand,-24.42,-53.521
2050,2,410210,Astorga,-23.233,-51.666
2051,1,410230,Balsa Nova,-25.584,-49.636
2052,1,410240,Bandeirantes,-23.11,-50.368
2053,3,410250,Barbosa Ferraz,-24.03,-52.012
2054,1,410275,Bela Vista da Caroba,-25.881,-53.665
2055,1,410290,Bituruna,-26.161,-51.553
2056,2,410304,Boa Ventura de São Roque,-24.869,-51.628
2057,3,410305,Boa Vista da Aparecida,-25.436,-53.408
2058,1,410335,Braganey,-24.816,-53.122
2059,1,410337,Brasilândia do Sul,-24.197,-53.525
2060,1,410340,Cafeara,-22.793,-51.716
2061,2,410345,Cafelândia,-24.618,-53.32
2062,2,410350,Califórnia,-23.65,-51.355
2063,1,410360,Cambará,-23.046,-50.074
2064,4,410370,Cambé,-23.276,-51.278
2065,4,410400,Campina Grande do Sul,-25.306,-49.055
2066,1,410410,Campo do Tenente,-25.978,-49.683
2067,8,410420,Campo Largo,-25.459,-49.528
2068,2,410425,Campo Magro,-25.369,-49.451
2069,8,410430,Campo Mourão,-24.046,-52.383
2070,2,410440,Cândido de Abreu,-24.567,-51.333
2071,5,410445,Cantagalo,-25.374,-52.126
2072,3,410450,Capanema,-25.672,-53.809
2073,2,410460,Capitão Leônidas Marques,-25.479,-53.614
2074,18,410480,Cascavel,-24.956,-53.455
2075,4,410490,Castro,-24.791,-50.012
2076,1,410510,Centenário do Sul,-22.821,-51.595
2077,2,410530,Céu Azul,-25.147,-53.849
2078,2,410540,Chopinzinho,-25.856,-52.523
2079,8,410550,Cianorte,-23.663,-52.605
2080,1,410560,Cidade Gaúcha,-23.38,-52.945
2081,1,410570,Clevelândia,-26.396,-52.471
2082,9,410580,Colombo,-25.292,-49.224
2083,1,410590,Colorado,-22.838,-51.973
2084,1,410610,Conselheiro Mairinck,-23.63,-50.169
2085,3,410620,Contenda,-25.676,-49.535
2086,2,410630,Corbélia,-24.799,-53.307
2087,5,410640,Cornélio Procópio,-23.181,-50.647
2088,1,410660,Cruzeiro do Oeste,-23.785,-53.073
2089,2,410680,Cruz Machado,-26.017,-51.347
2090,99,410690,Curitiba,-25.428,-49.273
2091,3,410720,Dois Vizinhos,-25.734,-53.057
2092,2,410725,Douradina,-23.381,-53.292
2093,1,410730,Doutor Camargo,-23.556,-52.218
2094,2,410754,Espigão Alto do Iguaçu,-25.424,-52.836
2095,1,410755,Farol,-24.1,-52.623
2096,3,410760,Faxinal,-24.001,-51.32
2097,7,410765,Fazenda Rio Grande,-25.658,-49.308
2098,1,410770,Fênix,-23.916,-51.979
2099,1,410773,Fernandes Pinheiro,-25.413,-50.548
2100,1,410800,Florestópolis,-22.863,-51.387
2101,1,410820,Formosa do Oeste,-24.293,-53.313
2102,16,410830,Foz do Iguaçu,-25.548,-54.588
2103,16,410840,Francisco Beltrão,-26.081,-53.055
2104,2,410860,Goioerê,-24.185,-53.028
2105,1,410865,Goioxim,-25.195,-51.993
2106,1,410870,Grandes Rios,-24.146,-51.506
2107,4,410880,Guaíra,-24.08,-54.256
2108,1,410890,Guairaçá,-22.934,-52.686
2109,2,410895,Guamiranga,-25.191,-50.805
2110,1,410900,Guapirama,-23.516,-50.04
2111,1,410920,Guaraci,-22.973,-51.65
2112,3,410930,Guaraniaçu,-25.101,-52.878
2113,19,410940,Guarapuava,-25.395,-51.458
2114,7,410960,Guaratuba,-25.883,-48.575
2115,2,410970,Ibaiti,-23.849,-50.188
2116,3,410980,Ibiporã,-23.269,-51.048
2117,1,411000,Iguaraçu,-23.197,-51.828
2118,1,411005,Iguatu,-24.717,-53.084
2119,1,411007,Imbaú,-24.445,-50.761
2120,3,411010,Imbituva,-25.23,-50.604
2121,2,411020,Inácio Martins,-25.571,-51.079
2122,1,411050,Ipiranga,-25.024,-50.584
2123,1,411060,Iporã,-24.003,-53.704
2124,6,411070,Irati,-25.467,-50.651
2125,1,411080,Iretama,-24.424,-52.106
2126,2,411110,Itambé,-23.661,-51.99
2127,1,411120,Itapejara d'Oeste,-25.965,-52.816
2128,2,411125,Itaperuçu,-25.22,-49.348
2129,1,411140,Ivaí,-25.011,-50.859
2130,5,411150,Ivaiporã,-24.248,-51.685
2131,4,411180,Jacarezinho,-23.161,-49.969
2132,3,411200,Jaguariaíva,-24.251,-49.706
2133,4,411210,Jandaia do Sul,-23.603,-51.643
2134,1,411220,Janiópolis,-24.142,-52.782
2135,1,411250,Jardim Alegre,-24.179,-51.692
2136,1,411270,Jataizinho,-23.254,-50.98
2137,1,411275,Jesuítas,-24.385,-53.388
2138,3,411280,Joaquim Távora,-23.499,-49.905
2139,2,411295,Juranda,-24.42,-52.843
2140,3,411320,Lapa,-25.77,-49.716
2141,7,411330,Laranjeiras do Sul,-25.408,-52.416
2142,1,411342,Lidianópolis,-24.109,-51.653
2143,50,411370,Londrina,-23.31,-51.163
2144,3,411390,Mallet,-25.878,-50.821
2145,1,411410,Mandaguaçu,-23.347,-52.095
2146,1,411420,Mandaguari,-23.548,-51.671
2147,1,411430,Mandirituba,-25.779,-49.326
2148,1,411435,Manfrinópolis,-26.144,-53.311
2149,1,411440,Mangueirinha,-25.941,-52.176
2150,1,411450,Manoel Ribas,-24.516,-51.668
2151,8,411460,Marechal Cândido Rondon,-24.556,-54.057
2152,1,411470,Maria Helena,-23.616,-53.205
2153,2,411480,Marialva,-23.485,-51.792
2154,23,411520,Maringá,-23.425,-51.939
2155,1,411530,Mariópolis,-26.355,-52.559
2156,1,411560,Matelândia,-25.241,-53.996
2157,4,411570,Matinhos,-25.818,-48.543
2158,2,411575,Mauá da Serra,-23.901,-51.229
2159,8,411580,Medianeira,-25.295,-54.094
2160,3,411620,Morretes,-25.477,-48.834
2161,1,411640,Nossa Senhora das Graças,-22.914,-51.794
2162,3,411690,Nova Esperança,-23.184,-52.205
2163,1,411720,Nova Olímpia,-23.472,-53.089
2164,1,411722,Nova Santa Rosa,-24.466,-53.953
2165,2,411725,Nova Prata do Iguaçu,-25.633,-53.347
2166,3,411750,Paiçandu,-23.458,-52.049
2167,6,411760,Palmas,-26.484,-51.991
2168,2,411770,Palmeira,-25.429,-50.006
2169,1,411790,Palotina,-24.284,-53.84
2170,2,411800,Paraíso do Norte,-23.281,-52.602
2171,1,411810,Paranacity,-22.93,-52.151
2172,3,411820,Paranaguá,-25.52,-48.509
2173,1,411840,Paranavaí,-23.073,-52.465
2174,13,411850,Pato Branco,-26.229,-52.671
2175,1,411880,Peabiru,-23.913,-52.343
2176,1,411890,Pérola,-23.805,-53.684
2177,1,411900,Pérola d'Oeste,-25.824,-53.74
2178,3,411915,Pinhais,-25.445,-49.193
2179,4,411930,Pinhão,-25.696,-51.66
2180,1,411940,Piraí do Sul,-24.526,-49.949
2181,7,411950,Piraquara,-25.442,-49.063
2182,3,411980,Planalto,-25.716,-53.766
2183,20,411990,Ponta Grossa,-25.095,-50.162
2184,1,411995,Pontal do Paraná,-25.674,-48.511
2185,1,412015,Porto Barreiro,-25.547,-52.408
2186,2,412035,Pranchita,-26.02,-53.74
2187,1,412040,Presidente Castelo Branco,-23.278,-52.152
2188,6,412060,Prudentópolis,-25.213,-50.978
2189,1,412070,Quatiguá,-23.567,-49.914
2190,1,412080,Quatro Barras,-25.366,-49.077
2191,3,412090,Quedas do Iguaçu,-25.45,-52.908
2192,1,412110,Quinta do Sol,-23.852,-52.13
2193,1,412120,Quitandinha,-25.872,-49.498
2194,1,412130,Rancho Alegre,-23.07,-50.913
2195,1,412135,Rancho Alegre D'Oeste,-24.307,-52.954
2196,1,412140,Realeza,-25.767,-53.527
2197,1,412150,Rebouças,-25.621,-50.693
2198,2,412160,Renascença,-26.158,-52.969
2199,4,412170,Reserva,-24.65,-50.851
2200,2,412200,Rio Azul,-25.733,-50.796
2201,1,412210,Rio Bom,-23.762,-51.411
2202,1,412220,Rio Branco do Sul,-25.19,-49.314
2203,2,412230,Rio Negro,-26.106,-49.798
2204,6,412240,Rolândia,-23.31,-51.369
2205,1,412250,Roncador,-24.603,-52.275
2206,1,412260,Rondon,-23.411,-52.761
2207,1,412280,Salgado Filho,-26.17,-53.361
2208,1,412340,Santa Fé,-23.038,-51.805
2209,1,412350,Santa Helena,-24.86,-54.333
2210,1,412380,Santa Izabel do Oeste,-25.821,-53.484
2211,2,412385,Santa Maria do Oeste,-24.939,-51.863
2212,1,412400,Santana do Itararé,-23.755,-49.629
2213,1,412402,Santa Tereza do Oeste,-25.052,-53.633
2214,1,412405,Santa Terezinha de Itaipu,-25.447,-54.401
2215,1,412410,Santo Antônio da Platina,-23.295,-50.077
2216,3,412440,Santo Antônio do Sudoeste,-26.07,-53.723
2217,1,412470,São Jerônimo da Serra,-23.728,-50.741
2218,1,412520,São Jorge d'Oeste,-25.706,-52.918
2219,1,412535,São Jorge do Patrocínio,-23.741,-53.927
2220,1,412540,São José da Boa Vista,-23.916,-49.652
2221,1,412545,São José das Palmeiras,-24.838,-54.064
2222,11,412550,São José dos Pinhais,-25.535,-49.206
2223,6,412560,São Mateus do Sul,-25.874,-50.383
2224,2,412570,São Miguel do Iguaçu,-25.348,-54.238
2225,1,412620,Sapopema,-23.911,-50.58
2226,12,412625,Sarandi,-23.444,-51.874
2227,1,412630,Sengés,-24.113,-49.464
2228,2,412660,Siqueira Campos,-23.689,-49.834
2229,1,412680,Tapejara,-23.733,-52.873
2230,2,412690,Tapira,-23.323,-53.068
2231,1,412710,Telêmaco Borba,-24.324,-50.616
2232,2,412740,Terra Roxa,-24.157,-54.097
2233,2,412750,Tibagi,-24.509,-50.414
2234,13,412770,Toledo,-24.714,-53.743
2235,5,412785,Três Barras do Paraná,-25.419,-53.181
2236,1,412788,Tunas do Paraná,-24.974,-49.086
2237,1,412796,Turvo,-25.043,-51.53
2238,7,412810,Umuarama,-23.766,-53.325
2239,10,412820,União da Vitória,-26.23,-51.086
2240,2,412840,Uraí,-23.198,-50.796
2241,4,412850,Wenceslau Braz,-23.874,-49.803
2242,2,412860,Verê,-25.881,-52.908
2243,1,412865,Virmond,-25.381,-52.199
2244,3,420010,Abelardo Luz,-26.565,-52.328
2245,2,420020,Agrolândia,-27.412,-49.826
2246,2,420030,Agronômica,-27.265,-49.711
2247,1,420050,Águas de Chapecó,-27.07,-52.987
2248,1,420060,Águas Mornas,-27.694,-48.824
2249,3,420100,Anita Garibaldi,-27.689,-51.13
2250,2,420125,Apiúna,-27.036,-49.39
2251,1,420127,Arabutã,-27.16,-52.142
2252,3,420130,Araquari,-26.37,-48.722
2253,18,420140,Araranguá,-28.935,-49.486
2254,1,420150,Armazém,-28.262,-49.018
2255,1,420180,Atalanta,-27.42,-49.781
2256,1,420190,Aurora,-27.315,-49.638
2257,1,420195,Balneário Arroio do Silva,-28.984,-49.413
2258,14,420200,Balneário Camboriú,-26.991,-48.635
2259,2,420207,Balneário Gaivota,-29.157,-49.579
2260,1,420208,Bandeirante,-26.769,-53.638
2261,1,420209,Barra Bonita,-26.654,-53.44
2262,3,420210,Barra Velha,-26.632,-48.685
2263,2,420213,Bela Vista do Toldo,-26.273,-50.464
2264,6,420230,Biguaçu,-27.494,-48.656
2265,43,420240,Blumenau,-26.919,-49.066
2266,1,420243,Bocaina do Sul,-27.744,-49.944
2267,1,420253,Bom Jesus,-26.734,-52.394
2268,2,420260,Bom Retiro,-27.797,-49.489
2269,9,420280,Braço do Norte,-28.275,-49.166
2270,1,420285,Braço do Trombudo,-27.358,-49.886
2271,1,420287,Brunópolis,-27.306,-50.868
2272,8,420290,Brusque,-27.098,-48.918
2273,10,420300,Caçador,-26.775,-51.015
2274,3,420320,Camboriú,-27.025,-48.654
2275,1,420330,Campo Alegre,-26.193,-49.266
2276,8,420360,Campos Novos,-27.402,-51.225
2277,1,420370,Canelinha,-27.265,-48.768
2278,8,420380,Canoinhas,-26.177,-50.39
2279,2,420390,Capinzal,-27.344,-51.612
2280,3,420395,Capivari de Baixo,-28.445,-48.958
2281,1,420400,Catanduvas,-27.071,-51.662
2282,18,420420,Chapecó,-27.096,-52.618
2283,17,420430,Concórdia,-27.234,-52.028
2284,1,420435,Cordilheira Alta,-26.984,-52.607
2285,2,420440,Coronel Freitas,-26.909,-52.703
2286,1,420455,Correia Pinto,-27.585,-50.361
2287,25,420460,Criciúma,-28.678,-49.37
2288,2,420470,Cunha Porã,-26.894,-53.168
2289,6,420480,Curitibanos,-27.283,-50.584
2290,1,420515,Doutor Pedrinho,-26.714,-49.483
2291,1,420520,Erval Velho,-27.276,-51.442
2292,3,420530,Faxinal dos Guedes,-26.853,-52.26
2293,49,420540,Florianópolis,-27.597,-48.549
2294,3,420545,Forquilhinha,-28.747,-49.472
2295,1,420550,Fraiburgo,-27.026,-50.921
2296,4,420570,Garopaba,-28.023,-48.613
2297,6,420590,Gaspar,-26.931,-48.959
2298,1,420610,Grão Pará,-28.185,-49.215
2299,3,420620,Gravatal,-28.331,-49.035
2300,2,420630,Guabiruba,-27.086,-48.981
2301,2,420650,Guaramirim,-26.473,-49.003
2302,1,420660,Guarujá do Sul,-26.385,-53.528
2303,1,420665,Guatambú,-27.132,-52.787
2304,3,420670,Herval d'Oeste,-27.194,-51.495
2305,2,420680,Ibicaré,-27.092,-51.365
2306,5,420690,Ibirama,-27.057,-49.518
2307,6,420700,Içara,-28.713,-49.3
2308,2,420710,Ilhota,-26.9,-48.827
2309,1,420720,Imaruí,-28.341,-48.82
2310,4,420730,Imbituba,-28.24,-48.67
2311,8,420750,Indaial,-26.898,-49.232
2312,1,420760,Ipira,-27.404,-51.773
2313,1,420768,Ipuaçu,-26.631,-52.455
2314,2,420770,Ipumirim,-27.077,-52.136
2315,1,420780,Irani,-27.025,-51.902
2316,2,420800,Itá,-27.291,-52.323
2317,3,420810,Itaiópolis,-26.336,-49.906
2318,20,420820,Itajaí,-26.908,-48.662
2319,1,420830,Itapema,-27.09,-48.611
2320,1,420840,Itapiranga,-27.169,-53.712
2321,1,420845,Itapoá,-26.117,-48.616
2322,6,420850,Ituporanga,-27.414,-49.601
2323,2,420870,Jacinto Machado,-28.997,-49.764
2324,2,420880,Jaguaruna,-28.615,-49.026
2325,16,420890,Jaraguá do Sul,-26.486,-49.067
2326,2,420900,Joaçaba,-27.178,-51.505
2327,53,420910,Joinville,-26.304,-48.846
2328,1,420915,José Boiteux,-26.958,-49.628
2329,10,420930,Lages,-27.816,-50.326
2330,4,420940,Laguna,-28.483,-48.781
2331,1,420960,Lauro Muller,-28.393,-49.397
2332,2,420970,Lebon Régis,-26.929,-50.695
2333,2,420990,Lontras,-27.166,-49.542
2334,1,421003,Luzerna,-27.133,-51.467
2335,7,421010,Mafra,-26.111,-49.805
2336,1,421020,Major Gercino,-27.418,-48.951
2337,2,421030,Major Vieira,-26.368,-50.328
2338,2,421050,Maravilha,-26.761,-53.173
2339,7,421060,Massaranduba,-26.611,-49.008
2340,3,421080,Meleiro,-28.829,-49.636
2341,1,421090,Modelo,-26.778,-53.055
2342,5,421100,Mondaí,-27.103,-53.402
2343,1,421120,Morro da Fumaça,-28.651,-49.21
2344,1,421125,Morro Grande,-28.801,-49.721
2345,5,421130,Navegantes,-26.899,-48.654
2346,1,421140,Nova Erechim,-26.903,-52.906
2347,1,421160,Nova Veneza,-28.637,-49.498
2348,1,421165,Novo Horizonte,-26.444,-52.834
2349,3,421170,Orleans,-28.359,-49.291
2350,2,421175,Otacílio Costa,-27.483,-50.122
2351,2,421185,Ouro Verde,-26.694,-52.312
2352,1,421189,Painel,-27.929,-50.105
2353,14,421190,Palhoça,-27.645,-48.668
2354,4,421200,Palma Sola,-26.348,-53.278
2355,7,421210,Palmitos,-27.068,-53.161
2356,1,421220,Papanduva,-26.37,-50.144
2357,2,421225,Passo de Torres,-29.316,-49.724
2358,1,421240,Pedras Grandes,-28.436,-49.185
2359,5,421250,Penha,-26.769,-48.646
2360,2,421270,Petrolândia,-27.535,-49.698
2361,2,421280,Balneário Piçarras,-26.764,-48.672
2362,1,421290,Pinhalzinho,-26.848,-52.992
2363,1,421310,Piratuba,-27.42,-51.772
2364,1,421315,Planalto Alegre,-27.07,-52.866
2365,5,421320,Pomerode,-26.741,-49.177
2366,1,421350,Porto Belo,-27.158,-48.553
2367,4,421360,Porto União,-26.238,-51.078
2368,3,421370,Pouso Redondo,-27.258,-49.934
2369,1,421380,Praia Grande,-29.197,-49.95
2370,1,421390,Presidente Castello Branco,-27.223,-51.807
2371,5,421400,Presidente Getúlio,-27.051,-49.623
2372,1,421420,Quilombo,-26.726,-52.721
2373,3,421470,Rio dos Cedros,-26.738,-49.274
2374,8,421480,Rio do Sul,-27.214,-49.643
2375,6,421500,Rio Negrinho,-26.254,-49.518
2376,2,421507,Riqueza,-27.067,-53.322
2377,1,421510,Rodeio,-26.923,-49.366
2378,1,421530,Salete,-26.98,-50.0
2379,1,421535,Saltinho,-26.609,-53.056
2380,1,421550,Santa Cecília,-26.961,-50.427
2381,1,421567,Santa Terezinha,-26.779,-50.008
2382,1,421569,Santiago do Sul,-26.639,-52.685
2383,1,421570,Santo Amaro da Imperatriz,-27.688,-48.779
2384,11,421580,São Bento do Sul,-26.25,-49.379
2385,1,421590,São Bonifácio,-27.901,-48.929
2386,1,421600,São Carlos,-27.078,-53.004
2387,1,421605,São Cristovão do Sul,-27.267,-50.441
2388,1,421620,São Francisco do Sul,-26.243,-48.638
2389,1,421625,São João do Oeste,-27.098,-53.594
2390,1,421630,São João Batista,-27.276,-48.849
2391,4,421650,São Joaquim,-28.294,-49.932
2392,16,421660,São José,-27.615,-48.628
2393,4,421670,São José do Cedro,-26.455,-53.494
2394,4,421680,São José do Cerrito,-27.663,-50.58
2395,4,421690,São Lourenço do Oeste,-26.359,-52.851
2396,1,421700,São Ludgero,-28.326,-49.177
2397,2,421710,São Martinho,-28.165,-48.979
2398,2,421720,São Miguel do Oeste,-26.725,-53.518
2399,3,421725,São Pedro de Alcântara,-27.566,-48.805
2400,1,421730,Saudades,-26.924,-53.003
2401,1,421740,Schroeder,-26.413,-49.073
2402,2,421750,Seara,-27.149,-52.311
2403,1,421755,Serra Alta,-26.729,-53.042
2404,7,421770,Sombrio,-29.104,-49.629
2405,2,421780,Taió,-27.116,-49.998
2406,3,421800,Tijucas,-27.241,-48.634
2407,1,421820,Timbó,-26.823,-49.272
2408,1,421825,Timbó Grande,-26.615,-50.674
2409,1,421850,Treze Tílias,-27.002,-51.406
2410,1,421860,Trombudo Central,-27.299,-49.79
2411,7,421870,Tubarão,-28.467,-49.007
2412,1,421875,Tunápolis,-26.969,-53.639
2413,1,421880,Turvo,-28.926,-49.679
2414,1,421890,Urubici,-28.015,-49.592
2415,1,421900,Urussanga,-28.518,-49.321
2416,1,421920,Vidal Ramos,-27.392,-49.356
2417,11,421930,Videira,-27.008,-51.152
2418,1,421940,Witmarsum,-26.926,-49.796
2419,8,421950,Xanxerê,-26.877,-52.404
2420,1,421960,Xavantina,-27.069,-52.342
2421,3,421970,Xaxim,-26.962,-52.535
2422,1,421985,Zortéa,-27.451,-51.555
2423,2,430005,Água Santa,-28.177,-52.034
