"MUNCOD","MUNCODDV","SITUACAO","MUNSINP","MUNSIAFI","MUNNOME","MUNNOMEX","OBSERV","MUNSINON","MUNSINONDV","AMAZONIA","FRONTEIRA","CAPITAL","UFCOD","MESOCOD","MICROCOD","MSAUDCOD","RSAUDCOD","CSAUDCOD","RMETRCOD","AGLCOD","ANOINST","ANOEXT","SUCESSOR","LATITUDE","LONGITUDE","ALTITUDE","AREA"
"0","0","IGNOR","0","","Ignorado ou exterior","IGNORADO OU EXTERIOR","Ignorado",",      ,000001-009999",",       ,0000001-0099999","N","N","N","0","0","0","0","0","0","0","0","","","","0.00000","0.00000","0","0.000"
"110000","1100000","IGNOR","26000","","Município ignorado - RO","MUNICIPIO IGNORADO - RO","",",119999",",1199999","N","N","N","11","1100","11000","1100","1100","11000","1100","1100","","","","0.00000","0.00000","0","0.000"
"110001","1100015","ATIVO","26016","33","Alta Floresta D'Oeste","ALTA FLORESTA D'OESTE","","","","S","S","N","11","1102","11006","1190","1102","11900","1190","1190","1986","","","-11.92900","-61.99600","350","7066.702"
"110002","1100023","ATIVO","26004","7","Ariquemes","ARIQUEMES","","","","S","N","N","11","1102","11003","1190","1104","11900","1190","1190","1977","","","-9.91300","-63.04100","142","4426.558"
"110003","1100031","ATIVO","26020","37","Cabixi","CABIXI","","","","S","S","N","11","1102","11008","1190","1103","11900","1190","1190","1989","","","-13.49200","-60.54500","230","1314.355"
"110004","1100049","ATIVO","26007","9","Cacoal","CACOAL","","","","S","N","N","11","1102","11006","1190","1102","11900","1190","1190","1977","","","-11.43800","-61.44800","200","3792.638"
"110005","1100056","ATIVO","26014","27","Cerejeiras","CEREJEIRAS","","","","S","S","N","11","1102","11008","1190","1103","11900","1190","1190","1983","","","-13.18900","-60.81200","277","2783.305"
"110006","1100064","ATIVO","26008","23","Colorado do Oeste","COLORADO DO OESTE","","","","S","S","N","11","1102","11008","1190","1103","11900","1190","1190","1981","","","-13.11700","-60.54200","460","1451.058"
"110007","1100072","ATIVO","26030","981","Corumbiara","CORUMBIARA","","","","S","S","N","11","1102","11008","1190","1103","11900","1190","1190","1993","","","-12.96200","-60.88700","340","3060.318"
"110008","1100080","ATIVO","26009","21","Costa Marques","COSTA MARQUES","","","","S","S","N","11","1101","11002","1190","1101","11900","1190","1190","1981","","","-12.44500","-64.22700","140","12722.168"
"110009","1100098","ATIVO","26010","25","Espigão D'Oeste","ESPIGAO D'OESTE","","","","S","N","N","11","1102","11006","1190","1102","11900","1190","1190","1981","","","-11.52500","-61.01300","270","4518.055"
"110010","1100106","ATIVO","26001","1","Guajará-Mirim","GUAJARA-MIRIM","","","","S","S","N","11","1101","11002","1190","1104","11900","1190","1190","1943","","","-10.78300","-65.33900","128","24855.652"
"110011","1100114","ATIVO","26011","15","Jaru","JARU","","","","S","N","N","11","1102","11004","1190","1101","11900","1190","1190","1981","","","-10.43900","-62.46600","124","2944.025"
"110012","1100122","ATIVO","26003","5","Ji-Paraná","JI-PARANA","","","","S","N","N","11","1102","11004","1190","1101","11900","1190","1190","1977","","","-10.88200","-61.94400","170","6896.782"
"110013","1100130","ATIVO","26021","39","Machadinho D'Oeste","MACHADINHO D'OESTE","","","","S","N","N","11","1102","11003","1190","1104","11900","1190","1190","1989","","","-9.44400","-61.98100","102","8509.274"
"110014","1100148","ATIVO","26019","41","Nova Brasilândia D'Oeste","NOVA BRASILANDIA D'OESTE","","","","S","S","N","11","1102","11005","1190","1102","11900","1190","1190","1989","","","-11.72500","-62.33100","320","1155.353"
"110015","1100155","ATIVO","26012","17","Ouro Preto do Oeste","OURO PRETO DO OESTE","","","","S","N","N","11","1102","11004","1190","1101","11900","1190","1190","1981","","","-10.71600","-62.24800","280","1970.151"
"110018","1100189","ATIVO","26005","11","Pimenta Bueno","PIMENTA BUENO","","","","S","S","N","11","1102","11007","1190","1102","11900","1190","1190","1977","","","-11.67300","-61.19300","195","6241.072"
"110020","1100205","ATIVO","26002","3","Porto Velho","PORTO VELHO","","","","S","S","S","11","1101","11001","1190","1104","11900","1190","1101","1943","","","-8.76200","-63.90400","85","34082.366"
"110025","1100254","ATIVO","26013","19","Presidente Médici","PRESIDENTE MEDICI","","","","S","N","N","11","1102","11004","1190","1101","11900","1190","1190","1981","","","-11.17600","-61.90100","185","1758.461"
"110026","1100262","ATIVO","26036","687","Rio Crespo","RIO CRESPO","","","","S","N","N","11","1102","11003","1190","1104","11900","1190","1190","1993","","","-9.70500","-62.90000","0","1717.648"
"110028","1100288","ATIVO","26015","29","Rolim de Moura","ROLIM DE MOURA","","","","S","S","N","11","1102","11006","1190","1102","11900","1190","1190","1983","","","-11.73300","-61.77800","290","1457.885"
"110029","1100296","ATIVO","26018","43","Santa Luzia D'Oeste","SANTA LUZIA D'OESTE","","","","S","S","N","11","1102","11006","1190","1102","11900","1190","1190","1986","","","-11.90200","-61.77900","260","1197.781"
"110030","1100304","ATIVO","26006","13","Vilhena","VILHENA","","","","S","S","N","11","1102","11007","1190","1103","11900","1190","1190","1977","","","-12.74100","-60.14600","600","11518.929"
"110032","1100320","ATIVO","26022","45","São Miguel do Guaporé","SAO MIGUEL DO GUAPORE","","","","S","S","N","11","1102","11005","1190","1101","11900","1190","1190","1989","","","-11.68100","-62.68400","205","8007.866"
"110033","1100338","ATIVO","26023","47","Nova Mamoré","NOVA MAMORE","Ex Vila Nova do Mamoré","","","S","S","N","11","1101","11001","1190","1104","11900","1190","1190","1989","","","-10.41100","-65.33100","134","10071.702"
"110034","1100346","ATIVO","26017","35","Alvorada D'Oeste","ALVORADA D'OESTE","","","","S","S","N","11","1102","11005","1190","1101","11900","1190","1190","1986","","","-11.40800","-62.38900","224","3029.190"
"110037","1100379","ATIVO","26041","2","Alto Alegre dos Parecis","ALTO ALEGRE DOS PARECIS","","","","S","S","N","11","1102","11006","1190","1102","11900","1190","1190","1997","","","-12.12800","-61.85100","405","3958.586"
"110040","1100403","ATIVO","26024","675","Alto Paraíso","ALTO PARAISO","","","","S","N","N","11","1102","11003","1190","1104","11900","1190","1190","1993","","","-9.71300","-63.32100","0","2651.818"
"110045","1100452","ATIVO","26042","4","Buritis","BURITIS","","","","S","S","N","11","1101","11001","1190","1104","11900","1190","1190","1997","","","-10.21200","-63.82900","200","3265.739"
"110050","1100502","ATIVO","26025","689","Novo Horizonte do Oeste","NOVO HORIZONTE DO OESTE","Ex Cacaieiros","","","S","S","N","11","1102","11006","1190","1102","11900","1190","1190","1993","","","-11.71000","-62.00000","0","843.446"
"110060","1100601","ATIVO","26026","677","Cacaulândia","CACAULANDIA","","","","S","N","N","11","1102","11003","1190","1104","11900","1190","1190","1993","","","-10.34000","-62.89600","205","1961.745"
"110070","1100700","ATIVO","26027","679","Campo Novo de Rondônia","CAMPO NOVO DE RONDONIA","","","","S","S","N","11","1101","11001","1190","1104","11900","1190","1190","1993","","","-10.57100","-63.62700","0","3442.003"
"110080","1100809","ATIVO","26028","681","Candeias do Jamari","CANDEIAS DO JAMARI","","","","S","N","N","11","1101","11001","1190","1104","11900","1190","1190","1993","","","-8.79100","-63.70100","0","6843.866"
"110090","1100908","ATIVO","26029","691","Castanheiras","CASTANHEIRAS","","","","S","N","N","11","1102","11006","1190","1102","11900","1190","1190","1993","","","-11.42700","-61.95000","190","892.839"
"110092","1100924","ATIVO","26043","6","Chupinguaia","CHUPINGUAIA","","","","S","S","N","11","1102","11007","1190","1103","11900","1190","1190","1997","","","-12.55200","-60.90000","360","5126.675"
"110094","1100940","ATIVO","26044","8","Cujubim","CUJUBIM","","","","S","N","N","11","1101","11001","1190","1104","11900","1190","1190","1997","","","-9.36300","-62.58500","95","3864.071"
"110100","1101005","ATIVO","26031","693","Governador Jorge Teixeira","GOVERNADOR JORGE TEIXEIRA","","","","S","N","N","11","1102","11004","1190","1101","11900","1190","1190","1993","","","-10.61000","-62.73700","190","5067.381"
"110110","1101104","ATIVO","26032","683","Itapuã do Oeste","ITAPUA DO OESTE","Ex Jamari","","","S","N","N","11","1101","11001","1190","1104","11900","1190","1190","1993","","","-9.20500","-63.18000","0","4081.433"
"110120","1101203","ATIVO","26033","695","Ministro Andreazza","MINISTRO ANDREAZZA","","","","S","N","N","11","1102","11006","1190","1102","11900","1190","1190","1993","","","-11.19600","-61.51700","400","798.065"
"110130","1101302","ATIVO","26034","697","Mirante da Serra","MIRANTE DA SERRA","","","","S","N","N","11","1102","11004","1190","1101","11900","1190","1190","1993","","","-11.03000","-62.67500","230","1191.882"
"110140","1101401","ATIVO","26035","685","Monte Negro","MONTE NEGRO","","","","S","N","N","11","1102","11003","1190","1104","11900","1190","1190","1993","","","-10.24600","-63.29000","0","1931.371"
"110143","1101435","ATIVO","26045","10","Nova União","NOVA UNIAO","","","","S","N","N","11","1102","11004","1190","1101","11900","1190","1190","1997","","","-10.90400","-62.56100","250","807.179"
"110145","1101450","ATIVO","26046","12","Parecis","PARECIS","","","","S","S","N","11","1102","11007","1190","1102","11900","1190","1190","1997","","","-12.17500","-61.60300","355","2548.691"
"110146","1101468","ATIVO","26047","14","Pimenteiras do Oeste","PIMENTEIRAS DO OESTE","","","","S","S","N","11","1102","11008","1190","1103","11900","1190","1190","1997","","","-13.48300","-61.04700","185","6014.726"
"110147","1101476","ATIVO","26048","16","Primavera de Rondônia","PRIMAVERA DE RONDONIA","","","","S","S","N","11","1102","11007","1190","1102","11900","1190","1190","1997","","","-11.82800","-61.32100","210","605.698"
"110148","1101484","ATIVO","26049","18","São Felipe D'Oeste","SAO FELIPE D'OESTE","","","","S","S","N","11","1102","11007","1190","1102","11900","1190","1190","1997","","","-11.90300","-61.50200","290","541.639"
"110149","1101492","ATIVO","26050","20","São Francisco do Guaporé","SAO FRANCISCO DO GUAPORE","","","","S","S","N","11","1101","11002","1190","1101","11900","1190","1190","1997","","","-12.06200","-63.56900","185","4747.002"
"110150","1101500","ATIVO","26037","699","Seringueiras","SERINGUEIRAS","","","","S","S","N","11","1102","11005","1190","1101","11900","1190","1190","1993","","","-11.79800","-63.03100","0","2251.266"
"110155","1101559","ATIVO","26051","22","Teixeirópolis","TEIXEIROPOLIS","","","","S","N","N","11","1102","11004","1190","1101","11900","1190","1190","1997","","","-10.91800","-62.24900","260","459.954"
"110160","1101609","ATIVO","26038","975","Theobroma","THEOBROMA","","","","S","N","N","11","1102","11004","1190","1101","11900","1190","1190","1993","","","-10.24400","-62.35500","205","2197.415"
"110170","1101708","ATIVO","26039","977","Urupá","URUPA","","","","S","N","N","11","1102","11004","1190","1101","11900","1190","1190","1993","","","-11.12500","-62.37600","200","831.865"
"110175","1101757","ATIVO","26052","24","Vale do Anari","VALE DO ANARI","","","","S","N","N","11","1102","11003","1190","1104","11900","1190","1190","1997","","","-9.86300","-62.18600","140","3135.141"
"110180","1101807","ATIVO","26040","979","Vale do Paraíso","VALE DO PARAISO","","","","S","N","N","11","1102","11004","1190","1101","11900","1190","1190","1993","","","-10.44900","-62.13400","204","965.377"
"120000","1200000","IGNOR","24000","","Município ignorado - AC","MUNICIPIO IGNORADO - AC","",",129999",",1299999","N","N","N","12","1200","12000","1200","1200","12000","1200","1200","","","","0.00000","0.00000","0","0.000"
"120001","1200013","ATIVO","24027","643","Acrelândia","ACRELANDIA","","","","S","S","N","12","1202","12004","1290","1201","12900","1290","1290","1993","","","-9.82800","-66.88300","25","1574.550"
"120005","1200054","ATIVO","24001","157","Assis Brasil","ASSIS BRASIL","","","","S","S","N","12","1202","12005","1290","1202","12900","1290","1290","1976","","","-10.94100","-69.56700","239","2875.915"
"120010","1200104","ATIVO","24003","105","Brasiléia","BRASILEIA","","","","S","S","N","12","1202","12005","1290","1202","12900","1290","1290","1938","","","-11.01000","-68.74800","172","4336.189"
"120013","1200138","ATIVO","24028","645","Bujari","BUJARI","","","","S","S","N","12","1202","12004","1290","1201","12900","1290","1290","1993","","","-9.83100","-67.95200","50","3467.681"
"120017","1200179","ATIVO","24029","647","Capixaba","CAPIXABA","","","","S","S","N","12","1202","12004","1290","1201","12900","1290","1290","1993","","","-10.57300","-67.67600","40","1713.412"
"120020","1200203","ATIVO","24004","107","Cruzeiro do Sul","CRUZEIRO DO SUL","","","","S","S","N","12","1201","12001","1290","1203","12900","1290","1290","1904","","","-7.63100","-72.67000","182","7924.943"
"120025","1200252","ATIVO","24006","651","Epitaciolândia","EPITACIOLANDIA","","","","S","S","N","12","1202","12005","1290","1202","12900","1290","1290","1993","","","-11.02900","-68.74100","0","1659.131"
"120030","1200302","ATIVO","24007","113","Feijó","FEIJO","","","","S","S","N","12","1201","12002","1290","1203","12900","1290","1290","1906","","","-8.16400","-70.35400","153","24202.027"
"120032","1200328","ATIVO","24012","653","Jordão","JORDAO","","","","S","S","N","12","1201","12002","1290","1203","12900","1290","1290","1993","","","-9.43400","-71.88400","278","5428.765"
"120033","1200336","ATIVO","24014","109","Mâncio Lima","MANCIO LIMA","","","","S","S","N","12","1201","12001","1290","1203","12900","1290","1290","1976","","","-7.61400","-72.89600","195","4672.321"
"120034","1200344","ATIVO","24015","155","Manoel Urbano","MANOEL URBANO","","","","S","S","N","12","1202","12003","1290","1201","12900","1290","1290","1976","","","-8.83900","-69.26000","162","9386.961"
"120035","1200351","ATIVO","24016","655","Marechal Thaumaturgo","MARECHAL THAUMATURGO","","","","S","S","N","12","1201","12001","1290","1203","12900","1290","1290","1993","","","-8.94100","-72.79200","190","7743.828"
"120038","1200385","ATIVO","24018","151","Plácido de Castro","PLACIDO DE CASTRO","","","","S","S","N","12","1202","12004","1290","1201","12900","1290","1290","1976","","","-10.27600","-67.15000","136","2047.455"
"120039","1200393","ATIVO","24030","657","Porto Walter","PORTO WALTER","","","","S","S","N","12","1201","12001","1290","1203","12900","1290","1290","1993","","","-8.26900","-72.74400","195","6135.544"
"120040","1200401","ATIVO","24020","139","Rio Branco","RIO BRANCO","","","","S","S","S","12","1202","12004","1290","1201","12900","1290","1201","1904","","","-9.97500","-67.81000","153","9222.577"
"120042","1200427","ATIVO","24031","659","Rodrigues Alves","RODRIGUES ALVES","","","","S","S","N","12","1201","12001","1290","1203","12900","1290","1290","1993","","","-7.74200","-72.64700","0","3304.559"
"120043","1200435","ATIVO","24026","661","Santa Rosa do Purus","SANTA ROSA DO PURUS","Ex Santa Rosa","","","S","S","N","12","1202","12003","1290","1201","12900","1290","1290","1993","","","-9.43300","-70.49300","25","5981.137"
"120045","1200450","ATIVO","24021","153","Senador Guiomard","SENADOR GUIOMARD","","","","S","S","N","12","1202","12004","1290","1201","12900","1290","1290","1976","","","-10.15100","-67.73600","201","1837.294"
"120050","1200500","ATIVO","24023","145","Sena Madureira","SENA MADUREIRA","","","","S","S","N","12","1202","12003","1290","1201","12900","1290","1290","1904","","","-9.06600","-68.65700","150","25278.095"
"120060","1200609","ATIVO","24024","147","Tarauacá","TARAUACA","","","","S","S","N","12","1201","12002","1290","1203","12900","1290","1290","1907","","","-8.16100","-70.76600","168","15553.430"
"120070","1200708","ATIVO","24025","149","Xapuri","XAPURI","","","","S","S","N","12","1202","12005","1290","1202","12900","1290","1290","1904","","","-10.65200","-68.50400","150","5250.931"
"120080","1200807","ATIVO","24019","649","Porto Acre","PORTO ACRE","","","","S","S","N","12","1202","12004","1290","1201","12900","1290","1290","1993","","","-9.58800","-67.53300","145","2984.643"
"130000","1300000","IGNOR","3000","","Município ignorado - AM","MUNICIPIO IGNORADO - AM","",",139999",",1399999","N","N","N","13","1300","13000","1300","1300","13000","1300","1300","","","","0.00000","0.00000","0","0.000"
"130002","1300029","ATIVO","3046","289","Alvarães","ALVARAES","",",130029",",1300292","S","N","N","13","1303","13005","1390","1306","13900","1390","1390","1985","","","-3.22100","-64.80400","75","5911.754"
"130006","1300060","ATIVO","3048","291","Amaturá","AMATURA","","","","S","S","N","13","1302","13003","1390","1309","13900","1390","1390","1985","","","-3.36400","-68.19800","58","4758.821"
"130008","1300086","ATIVO","3049","293","Anamã","ANAMA","","","","S","N","N","13","1303","13006","1390","1302","13900","1390","1390","1985","","","-3.58000","-61.40400","28","2453.934"
"130010","1300102","ATIVO","3002","203","Anori","ANORI","","","","S","N","N","13","1303","13006","1390","1302","13900","1390","1390","1985","","","-3.77300","-61.64400","120","5795.283"
"130014","1300144","ATIVO","3050","969","Apuí","APUI","","","","S","N","N","13","1304","13013","1390","1304","13900","1390","1390","1989","","","-7.19700","-59.89100","135","54239.904"
"130020","1300201","ATIVO","3003","205","Atalaia do Norte","ATALAIA DO NORTE","","","","S","S","N","13","1302","13003","1390","1309","13900","1390","1390","1955","","","-4.37200","-70.19200","65","76354.985"
"130030","1300300","ATIVO","3004","207","Autazes","AUTAZES","","","","S","N","N","13","1303","13007","1390","1301","13900","1390","1390","1985","","","-3.58000","-59.13100","36","7599.282"
"130040","1300409","ATIVO","3005","209","Barcelos","BARCELOS","","","","S","S","N","13","1301","13001","1390","1305","13900","1390","1390","1931","","","-0.97500","-62.92400","47","122475.728"
"130050","1300508","ATIVO","3006","211","Barreirinha","BARREIRINHA","","","","S","N","N","13","1303","13010","1390","1310","13900","1390","1390","1935","","","-2.79300","-57.07000","19","5750.534"
"130060","1300607","ATIVO","3007","213","Benjamin Constant","BENJAMIN CONSTANT","","","","S","S","N","13","1302","13003","1390","1309","13900","1390","1390","1931","","","-4.38300","-70.03100","65","8793.429"
"130063","1300631","ATIVO","3053","295","Beruri","BERURI","","","","S","N","N","13","1303","13006","1390","1302","13900","1390","1390","1985","","","-3.89800","-61.37300","35","17251.235"
"130068","1300680","ATIVO","3055","297","Boa Vista do Ramos","BOA VISTA DO RAMOS","","","","S","N","N","13","1303","13010","1390","1310","13900","1390","1390","1985","","","-2.97000","-57.59000","32","2586.829"
"130070","1300706","ATIVO","3008","215","Boca do Acre","BOCA DO ACRE","","","","S","S","N","13","1304","13011","1390","1307","13900","1390","1390","1934","","","-8.75200","-67.39800","116","22348.948"
"130080","1300805","ATIVO","3009","217","Borba","BORBA","","","","S","N","N","13","1304","13013","1390","1304","13900","1390","1390","1888","","","-4.38800","-59.59400","45","44251.185"
"130083","1300839","ATIVO","3056","299","Caapiranga","CAAPIRANGA","","","","S","N","N","13","1303","13006","1390","1302","13900","1390","1390","1985","","","-3.32800","-61.20900","32","9456.578"
"130090","1300904","ATIVO","3010","219","Canutama","CANUTAMA","","","","S","S","N","13","1304","13012","1390","1307","13900","1390","1390","1931","","","-6.53400","-64.38300","55","29819.631"
"130100","1301001","ATIVO","3011","221","Carauari","CARAUARI","","","","S","N","N","13","1302","13004","1390","1308","13900","1390","1390","1931","","","-4.88300","-66.89600","87","25767.348"
"130110","1301100","ATIVO","3012","223","Careiro","CAREIRO","","","","S","N","N","13","1303","13007","1390","1301","13900","1390","1390","1955","","","-3.76800","-60.36900","27","6091.547"
"130115","1301159","ATIVO","3072","965","Careiro da Várzea","CAREIRO DA VARZEA","","","","S","N","N","13","1303","13007","1390","1301","13900","1390","1390","1989","","","-3.22100","-59.82600","25","2631.128"
"130120","1301209","ATIVO","3013","225","Coari","COARI","","","","S","N","N","13","1303","13006","1390","1306","13900","1390","1390","1874","","","-4.08500","-63.14100","10","57921.646"
"130130","1301308","ATIVO","3014","227","Codajás","CODAJAS","","","","S","N","N","13","1303","13006","1390","1302","13900","1390","1390","1875","","","-3.83700","-62.05700","47","18711.626"
"130140","1301407","ATIVO","3015","229","Eirunepé","EIRUNEPE","","","","S","N","N","13","1302","13004","1390","1308","13900","1390","1390","1894","","","-6.66000","-69.87400","124","15831.571"
"130150","1301506","ATIVO","3016","231","Envira","ENVIRA","","","","S","S","N","13","1302","13004","1390","1308","13900","1390","1390","1955","","","-7.43300","-70.02300","135","13369.291"
"130160","1301605","ATIVO","3017","233","Fonte Boa","FONTE BOA","","","","S","N","N","13","1302","13003","1390","1306","13900","1390","1390","1891","","","-2.51400","-66.09200","62","12110.907"
"130165","1301654","ATIVO","3073","967","Guajará","GUAJARA","","","","S","S","N","13","1302","13004","1390","1308","13900","1390","1390","1989","","","-7.54600","-72.58400","0","8904.244"
"130170","1301704","ATIVO","3018","235","Humaitá","HUMAITA","","","","S","N","N","13","1304","13013","1390","1304","13900","1390","1390","1890","","","-7.50600","-63.02100","58","33071.667"
"130180","1301803","ATIVO","3020","239","Ipixuna","IPIXUNA","","","","S","S","N","13","1302","13004","1390","1308","13900","1390","1390","1955","","","-7.05100","-71.69500","190","13565.920"
"130185","1301852","ATIVO","3061","9835","Iranduba","IRANDUBA","","","","S","N","N","13","1303","13007","1390","1301","13900","1390","1390","1985","","","-3.28500","-60.18600","60","2215.033"
"130190","1301902","ATIVO","3021","241","Itacoatiara","ITACOATIARA","","","","S","N","N","13","1303","13009","1390","1303","13900","1390","1390","1874","","","-3.14300","-58.44400","26","8891.993"
"130195","1301951","ATIVO","3062","9837","Itamarati","ITAMARATI","","","","S","N","N","13","1302","13004","1390","1308","13900","1390","1390","1985","","","-6.42500","-68.25300","60","25275.890"
"130200","1302009","ATIVO","3022","243","Itapiranga","ITAPIRANGA","","","","S","N","N","13","1303","13009","1390","1303","13900","1390","1390","1935","","","-2.74900","-58.02200","43","4231.132"
"130210","1302108","ATIVO","3023","245","Japurá","JAPURA","","","","S","S","N","13","1301","13002","1390","1306","13900","1390","1390","1955","","","-1.82600","-66.59900","50","55791.480"
"130220","1302207","ATIVO","3024","247","Juruá","JURUA","","","","S","N","N","13","1302","13004","1390","1306","13900","1390","1390","1955","","","-3.48100","-66.06900","55","19400.418"
"130230","1302306","ATIVO","3025","249","Jutaí","JUTAI","","","","S","S","N","13","1302","13003","1390","1306","13900","1390","1390","1955","","","-2.74700","-66.76700","48","69551.856"
"130240","1302405","ATIVO","3026","251","Lábrea","LABREA","","","","S","S","N","13","1304","13012","1390","1307","13900","1390","1390","1881","","","-7.25900","-64.79800","75","68229.009"
"130250","1302504","ATIVO","3027","253","Manacapuru","MANACAPURU","","","","S","N","N","13","1303","13007","1390","1302","13900","1390","1390","1894","","","-3.30000","-60.62100","60","7329.234"
"130255","1302553","ATIVO","3063","9839","Manaquiri","MANAQUIRI","","","","S","N","N","13","1303","13007","1390","1301","13900","1390","1390","1985","","","-3.42800","-60.45900","48","3975.759"
"130260","1302603","ATIVO","3028","255","Manaus","MANAUS","",",132603",",1326032","S","N","S","13","1303","13007","1390","1301","13900","1390","1301","1833","","","-3.10200","-60.02500","92","11401.058"
"130270","1302702","ATIVO","3029","257","Manicoré","MANICORE","","","","S","N","N","13","1304","13013","1390","1304","13900","1390","1390","1877","","","-5.80900","-61.30000","45","48282.478"
"130280","1302801","ATIVO","3030","259","Maraã","MARAA","","","","S","N","N","13","1301","13002","1390","1306","13900","1390","1390","1955","","","-1.85600","-65.58100","50","16910.419"
"130290","1302900","ATIVO","3031","261","Maués","MAUES","","","","S","N","N","13","1303","13010","1390","1303","13900","1390","1390","1833","","","-3.38400","-57.71900","25","39988.394"
"130300","1303007","ATIVO","3032","263","Nhamundá","NHAMUNDA","","","","S","S","N","13","1303","13010","1390","1310","13900","1390","1390","1955","","","-2.18600","-56.71300","25","14105.619"
"130310","1303106","ATIVO","3033","265","Nova Olinda do Norte","NOVA OLINDA DO NORTE","","","","S","N","N","13","1303","13009","1390","1303","13900","1390","1390","1955","","","-3.88800","-59.09400","32","5608.548"
"130320","1303205","ATIVO","3001","201","Novo Airão","NOVO AIRAO","","","","S","N","N","13","1301","13001","1390","1301","13900","1390","1390","1955","","","-2.62100","-60.94400","45","37771.246"
"130330","1303304","ATIVO","3034","267","Novo Aripuanã","NOVO ARIPUANA","","","","S","N","N","13","1304","13013","1390","1304","13900","1390","1390","1955","","","-5.12100","-60.38000","20","41191.345"
"130340","1303403","ATIVO","3035","269","Parintins","PARINTINS","",",133403",",1334036","S","N","N","13","1303","13010","1390","1310","13900","1390","1390","1848","","","-2.62800","-56.73600","27","5952.333"
"130350","1303502","ATIVO","3036","271","Pauini","PAUINI","","","","S","S","N","13","1304","13011","1390","1307","13900","1390","1390","1955","","","-7.71400","-66.97600","101","43263.388"
"130353","1303536","ATIVO","3045","9841","Presidente Figueiredo","PRESIDENTE FIGUEIREDO","","","","S","N","N","13","1303","13008","1390","1301","13900","1390","1390","1985","","","-2.03400","-60.02500","122","25422.235"
"130356","1303569","ATIVO","3065","9843","Rio Preto da Eva","RIO PRETO DA EVA","","","","S","N","N","13","1303","13008","1390","1301","13900","1390","1390","1985","","","-2.69900","-59.70000","47","5813.197"
"130360","1303601","ATIVO","3019","237","Santa Isabel do Rio Negro","SANTA ISABEL DO RIO NEGRO","","","","S","S","N","13","1301","13001","1390","1305","13900","1390","1390","1956","","","-0.41400","-65.01900","60","62846.237"
"130370","1303700","ATIVO","3037","273","Santo Antônio do Içá","SANTO ANTONIO DO ICA","","","","S","S","N","13","1302","13003","1390","1309","13900","1390","1390","1955","","","-3.10200","-67.94000","91","12307.773"
"130380","1303809","ATIVO","3042","283","São Gabriel da Cachoeira","SAO GABRIEL DA CACHOEIRA","","","","S","S","N","13","1301","13001","1390","1305","13900","1390","1390","1935","","","-0.13000","-67.08900","132","109184.896"
"130390","1303908","ATIVO","3038","275","São Paulo de Olivença","SAO PAULO DE OLIVENCA","","","","S","S","N","13","1302","13003","1390","1309","13900","1390","1390","1882","","","-3.37800","-68.87300","102","19745.808"
"130395","1303957","ATIVO","3066","9845","São Sebastião do Uatumã","SAO SEBASTIAO DO UATUMA","","","","S","N","N","13","1303","13010","1390","1310","13900","1390","1390","1985","","","-2.57200","-57.87100","24","10741.039"
"130400","1304005","ATIVO","3039","277","Silves","SILVES","","","","S","N","N","13","1303","13009","1390","1303","13900","1390","1390","1985","","","-2.83900","-58.20900","46","3748.818"
"130406","1304062","ATIVO","3068","9847","Tabatinga","TABATINGA","","","","S","S","N","13","1302","13003","1390","1309","13900","1390","1390","1981","","","-4.25300","-69.93800","60","3225.064"
"130410","1304104","ATIVO","3040","279","Tapauá","TAPAUA","","","","S","N","N","13","1304","13012","1390","1307","13900","1390","1390","1955","","","-5.62800","-63.18300","54","89324.259"
"130420","1304203","ATIVO","3041","281","Tefé","TEFE","","","","S","N","N","13","1303","13005","1390","1306","13900","1390","1390","1759","","","-3.35400","-64.71100","75","23704.426"
"130423","1304237","ATIVO","3070","9851","Tonantins","TONANTINS","","","","S","S","N","13","1302","13003","1390","1309","13900","1390","1390","1985","","","-2.87300","-67.80200","55","6432.586"
"130426","1304260","ATIVO","3071","9849","Uarini","UARINI","","","","S","N","N","13","1303","13005","1390","1306","13900","1390","1390","1985","","","-2.99000","-65.10800","60","10246.220"
"130430","1304302","ATIVO","3043","285","Urucará","URUCARA","","","","S","S","N","13","1303","13010","1390","1310","13900","1390","1390","1887","","","-2.53600","-57.76000","26","27904.858"
"130440","1304401","ATIVO","3044","287","Urucurituba","URUCURITUBA","","","","S","N","N","13","1303","13009","1390","1303","13900","1390","1390","1935","","","-3.13100","-58.15500","40","2906.677"
"140000","1400000","IGNOR","27000","","Município ignorado - RR","MUNICIPIO IGNORADO - RR","",",149999",",1499999","N","N","N","14","1400","14000","1400","1400","14000","1400","1400","","","","0.00000","0.00000","0","0.000"
"140002","1400027","ATIVO","27009","26","Amajari","AMAJARI","","","","S","S","N","14","1401","14001","1490","1401","14900","1490","1490","1997","","","3.65200","-61.37100","100","28472.223"
"140005","1400050","ATIVO","27003","305","Alto Alegre","ALTO ALEGRE","","","","S","S","N","14","1401","14001","1490","1401","14900","1490","1490","1982","","","2.98000","-61.29200","72","25566.845"
"140010","1400100","ATIVO","27001","301","Boa Vista","BOA VISTA","",",140100",",1401009","S","S","S","14","1401","14001","1490","1401","14900","1490","1401","1943","","","2.82000","-60.67300","85","5687.064"
"140015","1400159","ATIVO","27004","307","Bonfim","BONFIM","","","","S","S","N","14","1401","14002","1490","1401","14900","1490","1490","1982","","","3.36000","-59.83300","92","8095.319"
"140017","1400175","ATIVO","27010","28","Cantá","CANTA","","","","S","S","N","14","1401","14002","1490","1401","14900","1490","1490","1997","","","2.61000","-60.59700","100","7664.797"
"140020","1400209","ATIVO","27002","303","Caracaraí","CARACARAI","","","","S","S","N","14","1402","14003","1490","1401","14900","1490","1490","1955","","","1.81600","-61.12800","52","47410.891"
"140023","1400233","ATIVO","27011","30","Caroebe","CAROEBE","","","","S","S","N","14","1402","14004","1490","1401","14900","1490","1490","1997","","","0.88400","-59.69600","135","12065.543"
"140028","1400282","ATIVO","27012","32","Iracema","IRACEMA","","","","S","S","N","14","1402","14003","1490","1401","14900","1490","1490","1997","","","2.18200","-61.04100","80","14119.412"
"140030","1400308","ATIVO","27005","309","Mucajaí","MUCAJAI","","","","S","S","N","14","1402","14003","1490","1401","14900","1490","1490","1982","","","2.43000","-60.90000","70","12751.255"
"140040","1400407","ATIVO","27006","311","Normandia","NORMANDIA","","","","S","S","N","14","1401","14002","1490","1401","14900","1490","1490","1982","","","3.88100","-59.62300","100","6966.777"
"140045","1400456","ATIVO","27013","34","Pacaraima","PACARAIMA","","","","S","S","N","14","1401","14001","1490","1401","14900","1490","1490","1997","","","4.43100","-61.14600","920","8028.428"
"140047","1400472","ATIVO","27014","36","Rorainópolis","RORAINOPOLIS","","","","S","S","N","14","1402","14004","1490","1401","14900","1490","1490","1997","","","0.94600","-60.41800","98","33593.892"
"140050","1400506","ATIVO","27007","313","São João da Baliza","SAO JOAO DA BALIZA","","","","S","S","N","14","1402","14004","1490","1401","14900","1490","1490","1982","","","0.95100","-59.91100","255","4284.122"
"140060","1400605","ATIVO","27008","315","São Luiz","SAO LUIZ","","","","S","S","N","14","1402","14004","1490","1401","14900","1490","1490","1982","","","1.00500","-60.15900","52","1526.892"
"140070","1400704","ATIVO","27015","38","Uiramutã","UIRAMUTA","","","","S","S","N","14","1401","14002","1490","1401","14900","1490","1490","1997","","","4.59600","-60.16800","0","8065.520"
"150000","1500000","IGNOR","12000","","Município ignorado - PA","MUNICIPIO IGNORADO - PA","",",159999",",1599999","N","N","N","15","1500","15000","1500","1500","15000","1500","1500","","","","0.00000","0.00000","0","0.000"
"150010","1500107","ATIVO","12001","401","Abaetetuba","ABAETETUBA","","","","S","N","N","15","1504","15011","1590","1506","15900","1590","1590","1880","","","-1.71800","-48.88300","10","1610.743"
"150013","1500131","ATIVO","12124","375","Abel Figueiredo","ABEL FIGUEIREDO","","","","S","N","N","15","1506","15017","1590","1511","15900","1590","1590","1993","","","-4.95400","-48.39300","0","614.252"
"150020","1500206","ATIVO","12002","403","Acará","ACARA","","","","S","N","N","15","1504","15012","1590","1502","15900","1590","1590","1932","","","-1.96100","-48.19700","25","4343.772"
"150030","1500305","ATIVO","12003","405","Afuá","AFUA","","","","S","N","N","15","1502","15005","1590","1507","15900","1590","1590","1890","","","-0.15700","-50.38700","8","8372.772"
"150034","1500347","ATIVO","12106","383","Água Azul do Norte","AGUA AZUL DO NORTE","","","","S","N","N","15","1506","15019","1590","1512","15900","1590","1590","1993","","","-6.79100","-50.46700","0","7576.621"
"150040","1500404","ATIVO","12004","407","Alenquer","ALENQUER","","","","S","S","N","15","1501","15002","1590","1509","15900","1590","1590","1848","","","-1.94200","-54.73800","52","22282.075"
"150050","1500503","ATIVO","12005","409","Almeirim","ALMEIRIM","","","","S","S","N","15","1501","15003","1590","1509","15900","1590","1590","1930","","","-1.52300","-52.58200","65","72960.274"
"150060","1500602","ATIVO","12006","411","Altamira","ALTAMIRA","","","","S","N","N","15","1505","15015","1590","1510","15900","1590","1590","1911","","","-3.20300","-52.20600","109","159695.938"
"150070","1500701","ATIVO","12007","413","Anajás","ANAJAS","","","","S","N","N","15","1502","15005","1590","1508","15900","1590","1590","1938","","","-0.98700","-49.94000","10","6921.709"
"150080","1500800","ATIVO","12008","415","Ananindeua","ANANINDEUA","","","","S","N","N","15","1503","15007","1590","1501","15900","1501","1501","1943","","","-1.36600","-48.37200","17","185.057"
"150085","1500859","ATIVO","12129","40","Anapu","ANAPU","","","","S","N","N","15","1505","15015","1590","1510","15900","1590","1590","1997","","","-3.47200","-51.19800","96","11895.212"
"150090","1500909","ATIVO","12009","417","Augusto Corrêa","AUGUSTO CORREA","","","","S","N","N","15","1504","15010","1590","1504","15900","1590","1590","1961","","","-1.02200","-46.64500","20","1091.043"
"150095","1500958","ATIVO","12107","389","Aurora do Pará","AURORA DO PARA","","","","S","N","N","15","1504","15013","1590","1505","15900","1590","1590","1993","","","-2.13400","-47.56300","50","1811.827"
"150100","1501006","ATIVO","12010","419","Aveiro","AVEIRO","","","","S","N","N","15","1505","15014","1590","1509","15900","1590","1590","1961","","","-3.60600","-55.33200","28","17074.290"
"150110","1501105","ATIVO","12011","421","Bagre","BAGRE","","","","S","N","N","15","1502","15004","1590","1508","15900","1590","1590","1961","","","-1.90000","-50.16400","31","4397.290"
"150120","1501204","ATIVO","12012","423","Baião","BAIAO","","","","S","N","N","15","1504","15011","1590","1513","15900","1590","1590","1833","","","-2.79100","-49.67200","30","3758.273"
"150125","1501253","ATIVO","12130","42","Bannach","BANNACH","","","","S","N","N","15","1506","15018","1590","1512","15900","1590","1590","1997","","","-7.34800","-50.39600","420","2956.633"
"150130","1501303","ATIVO","12013","425","Barcarena","BARCARENA","","","","S","N","N","15","1503","15007","1590","1506","15900","1590","1501","1943","","","-1.50600","-48.62600","15","1310.325"
"150140","1501402","ATIVO","12014","427","Belém","BELEM","","","","S","N","S","15","1503","15007","1590","1501","15900","1501","1501","1616","","","-1.45600","-48.50400","10","1064.918"
"150145","1501451","ATIVO","12131","44","Belterra","BELTERRA","","","","S","N","N","15","1501","15002","1590","1509","15900","1590","1590","1997","","","-2.63600","-54.93700","152","4398.346"
"150150","1501501","ATIVO","12015","429","Benevides","BENEVIDES","","","","S","N","N","15","1503","15007","1590","1501","15900","1501","1501","1961","","","-1.36100","-48.24500","28","187.868"
"150157","1501576","ATIVO","12088","575","Bom Jesus do Tocantins","BOM JESUS DO TOCANTINS","","","","S","N","N","15","1506","15017","1590","1511","15900","1590","1590","1989","","","-5.05100","-48.60900","175","2816.425"
"150160","1501600","ATIVO","12016","431","Bonito","BONITO","","","","S","N","N","15","1504","15010","1590","1504","15900","1590","1590","1961","","","-1.36300","-47.30700","49","587.497"
"150170","1501709","ATIVO","12017","433","Bragança","BRAGANCA","","","","S","N","N","15","1504","15010","1590","1504","15900","1590","1590","1753","","","-1.06300","-46.77300","19","2090.234"
"150172","1501725","ATIVO","12108","639","Brasil Novo","BRASIL NOVO","","","","S","N","N","15","1505","15015","1590","1510","15900","1590","1590","1993","","","-3.26200","-52.66800","0","6368.246"
"150175","1501758","ATIVO","12089","577","Brejo Grande do Araguaia","BREJO GRANDE DO ARAGUAIA","","","","S","N","N","15","1506","15020","1590","1511","15900","1590","1590","1989","","","-5.69900","-48.41300","110","1187.816"
"150178","1501782","ATIVO","12109","625","Breu Branco","BREU BRANCO","","","","S","N","N","15","1506","15016","1590","1511","15900","1590","1590","1993","","","-4.00900","-49.46100","0","3943.171"
"150180","1501808","ATIVO","12018","435","Breves","BREVES","","","","S","N","N","15","1502","15005","1590","1508","15900","1590","1590","1851","","","-1.68200","-50.48000","40","9550.454"
"150190","1501907","ATIVO","12019","437","Bujaru","BUJARU","","","","S","N","N","15","1503","15008","1590","1502","15900","1590","1590","1943","","","-1.51500","-48.04500","10","1005.160"
"150195","1501956","ATIVO","12132","46","Cachoeira do Piriá","CACHOEIRA DO PIRIA","","","","S","N","N","15","1504","15013","1590","1504","15900","1590","1590","1997","","","-1.67100","-46.52900","0","2418.277"
"150200","1502004","ATIVO","12020","439","Cachoeira do Arari","CACHOEIRA DO ARARI","","","","S","N","N","15","1502","15006","1590","1507","15900","1590","1590","1935","","","-1.01100","-48.96300","20","3102.080"
"150210","1502103","ATIVO","12021","441","Cametá","CAMETA","","","","S","N","N","15","1504","15011","1590","1513","15900","1590","1590","1635","","","-2.24400","-49.49600","150","3081.360"
"150215","1502152","ATIVO","12133","48","Canaã dos Carajás","CANAA DOS CARAJAS","","","","S","N","N","15","1506","15019","1590","1511","15900","1590","1590","1997","","","-6.49700","-49.87800","210","3146.608"
"150220","1502202","ATIVO","12022","443","Capanema","CAPANEMA","","","","S","N","N","15","1504","15010","1590","1504","15900","1590","1590","1902","","","-1.19600","-47.18100","24","614.026"
"150230","1502301","ATIVO","12023","445","Capitão Poço","CAPITAO POCO","","","","S","N","N","15","1504","15013","1590","1505","15900","1590","1590","1961","","","-1.74500","-47.06500","73","2899.532"
"150240","1502400","ATIVO","12024","447","Castanhal","CASTANHAL","","","","S","N","N","15","1503","15008","1590","1503","15900","1590","1590","1932","","","-1.29700","-47.92200","41","1029.191"
"150250","1502509","ATIVO","12025","449","Chaves","CHAVES","","","","S","N","N","15","1502","15006","1590","1507","15900","1590","1590","1755","","","-0.16000","-49.98800","6","13084.879"
"150260","1502608","ATIVO","12026","451","Colares","COLARES","","","","S","N","N","15","1504","15009","1590","1502","15900","1590","1590","1961","","","-0.93700","-48.28200","15","609.776"
"150270","1502707","ATIVO","12027","453","Conceição do Araguaia","CONCEICAO DO ARAGUAIA","","","","S","N","N","15","1506","15022","1590","1512","15900","1590","1590","1935","","","-8.25800","-49.26500","165","5829.441"
"150275","1502756","ATIVO","12090","579","Concórdia do Pará","CONCORDIA DO PARA","","","","S","N","N","15","1504","15012","1590","1502","15900","1590","1590","1989","","","-1.99100","-47.94900","440","690.942"
"150276","1502764","ATIVO","12125","385","Cumaru do Norte","CUMARU DO NORTE","","","","S","N","N","15","1506","15018","1590","1512","15900","1590","1590","1993","","","-7.82500","-50.77300","299","17084.907"
"150277","1502772","ATIVO","12091","581","Curionópolis","CURIONOPOLIS","","","","S","N","N","15","1506","15019","1590","1511","15900","1590","1590","1989","","","-6.09100","-49.54100","180","2368.698"
"150280","1502806","ATIVO","12028","455","Curralinho","CURRALINHO","","","","S","N","N","15","1502","15005","1590","1508","15900","1590","1590","1865","","","-1.81400","-49.79500","15","3617.240"
"150285","1502855","ATIVO","12134","50","Curuá","CURUA","","","","S","N","N","15","1501","15002","1590","1509","15900","1590","1590","1997","","","-1.88800","-55.11700","0","1431.104"
"150290","1502905","ATIVO","12029","457","Curuçá","CURUCA","","","","S","N","N","15","1504","15009","1590","1503","15900","1590","1590","1933","","","-0.73400","-47.85500","37","672.614"
"150293","1502939","ATIVO","12092","583","Dom Eliseu","DOM ELISEU","","","","S","N","N","15","1506","15017","1590","1505","15900","1590","1590","1989","","","-4.28500","-47.50500","180","5267.514"
"150295","1502954","ATIVO","12110","377","Eldorado dos Carajás","ELDORADO DOS CARAJAS","","","","S","N","N","15","1506","15019","1590","1511","15900","1590","1590","1993","","","-6.10400","-49.35500","140","2956.708"
"150300","1503002","ATIVO","12030","459","Faro","FARO","","","","S","S","N","15","1501","15001","1590","1509","15900","1590","1590","1935","","","-2.17100","-56.74500","31","11766.496"
"150304","1503044","ATIVO","12135","52","Floresta do Araguaia","FLORESTA DO ARAGUAIA","","","","S","N","N","15","1506","15022","1590","1512","15900","1590","1590","1997","","","-7.55400","-49.71300","190","3444.251"
"150307","1503077","ATIVO","12093","585","Garrafão do Norte","GARRAFAO DO NORTE","","","","S","N","N","15","1504","15013","1590","1505","15900","1590","1590","1989","","","-1.93400","-47.05300","56","1604.355"
"150309","1503093","ATIVO","12111","627","Goianésia do Pará","GOIANESIA DO PARA","","","","S","N","N","15","1506","15017","1590","1511","15900","1590","1590","1993","","","-3.84300","-49.09700","103","7021.191"
"150310","1503101","ATIVO","12031","461","Gurupá","GURUPA","","","","S","N","N","15","1502","15004","1590","1508","15900","1590","1590","1639","","","-1.40500","-51.64000","20","8540.032"
"150320","1503200","ATIVO","12032","463","Igarapé-Açu","IGARAPE-ACU","","","","S","N","N","15","1504","15010","1590","1503","15900","1590","1590","1906","","","-1.12700","-47.61800","50","785.976"
"150330","1503309","ATIVO","12033","465","Igarapé-Miri","IGARAPE-MIRI","","","","S","N","N","15","1504","15011","1590","1506","15900","1590","1590","1930","","","-1.97500","-48.96000","17","1996.823"
"150340","1503408","ATIVO","12034","467","Inhangapi","INHANGAPI","","","","S","N","N","15","1503","15008","1590","1503","15900","1590","1590","1943","","","-1.43000","-47.91700","35","471.145"
"150345","1503457","ATIVO","12112","621","Ipixuna do Pará","IPIXUNA DO PARA","","","","S","N","N","15","1504","15013","1590","1505","15900","1590","1590","1993","","","-2.55800","-47.49400","50","5216.948"
"150350","1503507","ATIVO","12035","469","Irituia","IRITUIA","","","","S","N","N","15","1504","15013","1590","1505","15900","1590","1590","1935","","","-1.76900","-47.43900","25","1379.523"
"150360","1503606","ATIVO","12036","471","Itaituba","ITAITUBA","","","","S","N","N","15","1505","15014","1590","1509","15900","1590","1590","1935","","","-4.27600","-55.98400","15","62040.947"
"150370","1503705","ATIVO","12037","473","Itupiranga","ITUPIRANGA","","","","S","N","N","15","1506","15016","1590","1511","15900","1590","1590","1947","","","-5.13500","-49.32700","89","7879.995"
"150375","1503754","ATIVO","12113","631","Jacareacanga","JACAREACANGA","","","","S","N","N","15","1505","15014","1590","1509","15900","1590","1590","1993","","","-6.22400","-57.75400","70","53303.089"
"150380","1503804","ATIVO","12038","475","Jacundá","JACUNDA","","","","S","N","N","15","1506","15016","1590","1511","15900","1590","1590","1961","","","-4.45100","-49.11600","108","2008.404"
"150390","1503903","ATIVO","12039","477","Juruti","JURUTI","","","","S","N","N","15","1501","15001","1590","1509","15900","1590","1590","1935","","","-2.15200","-56.09200","36","8303.966"
"150400","1504000","ATIVO","12040","479","Limoeiro do Ajuru","LIMOEIRO DO AJURU","","","","S","N","N","15","1504","15011","1590","1513","15900","1590","1590","1961","","","-1.89500","-49.38100","28","1490.172"
"150405","1504059","ATIVO","12094","587","Mãe do Rio","MAE DO RIO","","","","S","N","N","15","1504","15013","1590","1505","15900","1590","1590","1989","","","-2.06000","-47.55300","25","469.488"
"150410","1504109","ATIVO","12041","481","Magalhães Barata","MAGALHAES BARATA","","","","S","N","N","15","1504","15009","1590","1503","15900","1590","1590","1961","","","-0.79500","-47.59800","50","324.788"
"150420","1504208","ATIVO","12042","483","Marabá","MARABA","","","","S","N","N","15","1506","15020","1590","1511","15900","1590","1590","1913","","","-5.36900","-49.11800","84","15092.268"
"150430","1504307","ATIVO","12043","485","Maracanã","MARACANA","","","","S","N","N","15","1504","15009","1590","1503","15900","1590","1590","1755","","","-0.76500","-47.45000","45","780.724"
"150440","1504406","ATIVO","12044","487","Marapanim","MARAPANIM","","","","S","N","N","15","1504","15009","1590","1503","15900","1590","1590","1931","","","-0.71400","-47.69400","40","791.959"
"150442","1504422","ATIVO","12136","54","Marituba","MARITUBA","","","","S","N","N","15","1503","15007","1590","1501","15900","1501","1501","1997","","","-1.35500","-48.34200","18","103.279"
"150445","1504455","ATIVO","12095","589","Medicilândia","MEDICILANDIA","","","","S","N","N","15","1505","15015","1590","1510","15900","1590","1590","1989","","","-3.44600","-52.88900","151","8272.583"
"150450","1504505","ATIVO","12045","489","Melgaço","MELGACO","","","","S","N","N","15","1502","15004","1590","1508","15900","1590","1590","1961","","","-1.80400","-50.71200","12","6773.975"
"150460","1504604","ATIVO","12046","491","Mocajuba","MOCAJUBA","","","","S","N","N","15","1504","15011","1590","1513","15900","1590","1590","1935","","","-2.58400","-49.50700","30","870.800"
"150470","1504703","ATIVO","12047","493","Moju","MOJU","","","","S","N","N","15","1504","15012","1590","1506","15900","1590","1590","1935","","","-1.88400","-48.76900","16","9093.850"
"150480","1504802","ATIVO","12048","495","Monte Alegre","MONTE ALEGRE","","","","S","N","N","15","1501","15002","1590","1509","15900","1590","1590","1755","","","-2.00800","-54.06900","38","21703.027"
"150490","1504901","ATIVO","12049","497","Muaná","MUANA","","","","S","N","N","15","1502","15006","1590","1507","15900","1590","1590","1833","","","-1.52800","-49.21700","22","3765.524"
"150495","1504950","ATIVO","12126","391","Nova Esperança do Piriá","NOVA ESPERANCA DO PIRIA","","","","S","N","N","15","1504","15013","1590","1505","15900","1590","1590","1993","","","-2.26900","-46.96600","0","2809.984"
"150497","1504976","ATIVO","12137","56","Nova Ipixuna","NOVA IPIXUNA","","","","S","N","N","15","1506","15016","1590","1511","15900","1590","1590","1997","","","-4.92100","-49.07700","118","1600.317"
"150500","1505007","ATIVO","12050","499","Nova Timboteua","NOVA TIMBOTEUA","","","","S","N","N","15","1504","15010","1590","1504","15900","1590","1590","1943","","","-1.20600","-47.38600","51","489.859"
"150503","1505031","ATIVO","12114","633","Novo Progresso","NOVO PROGRESSO","","","","S","N","N","15","1505","15014","1590","1509","15900","1590","1590","1993","","","-7.14700","-55.38200","240","38162.317"
"150506","1505064","ATIVO","12115","629","Novo Repartimento","NOVO REPARTIMENTO","","","","S","N","N","15","1506","15016","1590","1511","15900","1590","1590","1993","","","-4.33100","-49.79600","0","15398.627"
"150510","1505106","ATIVO","12051","501","Óbidos","OBIDOS","","","","S","S","N","15","1501","15001","1590","1509","15900","1590","1590","1755","","","-1.91800","-55.51800","45","28021.287"
"150520","1505205","ATIVO","12052","503","Oeiras do Pará","OEIRAS DO PARA","","","","S","N","N","15","1504","15011","1590","1513","15900","1590","1590","1938","","","-2.00300","-49.85400","2","3852.256"
"150530","1505304","ATIVO","12053","505","Oriximiná","ORIXIMINA","","","","S","S","N","15","1501","15001","1590","1509","15900","1590","1590","1934","","","-1.76600","-55.86600","46","107602.992"
"150540","1505403","ATIVO","12054","507","Ourém","OUREM","","","","S","N","N","15","1504","15013","1590","1504","15900","1590","1590","1933","","","-1.54800","-47.11900","40","562.133"
"150543","1505437","ATIVO","12096","591","Ourilândia do Norte","OURILANDIA DO NORTE","","","","S","N","N","15","1506","15018","1590","1512","15900","1590","1590","1989","","","-6.75500","-51.08400","280","13826.010"
"150548","1505486","ATIVO","12097","593","Pacajá","PACAJA","","","","S","N","N","15","1505","15015","1590","1510","15900","1590","1590","1989","","","-3.83800","-50.63800","105","11832.183"
"150549","1505494","ATIVO","12116","379","Palestina do Pará","PALESTINA DO PARA","","","","S","N","N","15","1506","15020","1590","1511","15900","1590","1590","1993","","","-5.74200","-48.31700","0","983.885"
"150550","1505502","ATIVO","12055","509","Paragominas","PARAGOMINAS","","","","S","N","N","15","1506","15017","1590","1505","15900","1590","1590","1965","","","-2.99500","-47.35300","90","19330.519"
"150553","1505536","ATIVO","12098","595","Parauapebas","PARAUAPEBAS","","","","S","N","N","15","1506","15019","1590","1511","15900","1590","1590","1989","","","-6.06800","-49.90200","18","7007.737"
"150555","1505551","ATIVO","12117","387","Pau D'Arco","PAU D'ARCO","","","","S","N","N","15","1506","15021","1590","1512","15900","1590","1590","1993","","","-7.83300","-50.04400","0","1671.413"
"150560","1505601","ATIVO","12056","511","Peixe-Boi","PEIXE-BOI","","","","S","N","N","15","1504","15010","1590","1504","15900","1590","1590","1961","","","-1.19200","-47.31400","34","450.288"
"150563","1505635","ATIVO","12138","58","Piçarra","PICARRA","","","","S","N","N","15","1506","15021","1590","1511","15900","1590","1590","1997","","","-6.43800","-48.87200","215","3312.485"
"150565","1505650","ATIVO","12139","60","Placas","PLACAS","","","","S","N","N","15","1501","15002","1590","1509","15900","1590","1590","1997","","","-3.86800","-54.22000","95","7173.154"
"150570","1505700","ATIVO","12057","513","Ponta de Pedras","PONTA DE PEDRAS","","","","S","N","N","15","1502","15006","1590","1507","15900","1590","1590","1877","","","-1.39000","-48.87100","10","3365.126"
"150580","1505809","ATIVO","12058","515","Portel","PORTEL","","","","S","N","N","15","1502","15004","1590","1508","15900","1590","1590","1935","","","-1.93600","-50.82100","19","25384.779"
"150590","1505908","ATIVO","12059","517","Porto de Moz","PORTO DE MOZ","","","","S","N","N","15","1501","15003","1590","1510","15900","1590","1590","1937","","","-1.74800","-52.23800","15","17422.876"
"150600","1506005","ATIVO","12060","519","Prainha","PRAINHA","","","","S","N","N","15","1501","15002","1590","1509","15900","1590","1590","1935","","","-1.80000","-53.48000","70","12599.481"
"150610","1506104","ATIVO","12061","521","Primavera","PRIMAVERA","","","","S","N","N","15","1504","15010","1590","1504","15900","1590","1590","1961","","","-0.94300","-47.11600","48","258.598"
"150611","1506112","ATIVO","12140","62","Quatipuru","QUATIPURU","","","","S","N","N","15","1504","15010","1590","1504","15900","1590","1590","1997","","","-0.90100","-47.00600","29","324.252"
"150613","1506138","ATIVO","12084","567","Redenção","REDENCAO","","","","S","N","N","15","1506","15021","1590","1512","15900","1590","1590","1982","","","-8.02900","-50.03100","227","3823.787"
"150616","1506161","ATIVO","12085","569","Rio Maria","RIO MARIA","","","","S","N","N","15","1506","15021","1590","1512","15900","1590","1590","1982","","","-7.31100","-50.04800","205","4114.601"
"150618","1506187","ATIVO","12086","573","Rondon do Pará","RONDON DO PARA","","","","S","N","N","15","1506","15017","1590","1511","15900","1590","1590","1982","","","-4.77600","-48.06700","195","8246.634"
"150619","1506195","ATIVO","12099","597","Rurópolis","RUROPOLIS","","","","S","N","N","15","1505","15014","1590","1509","15900","1590","1590","1989","","","-4.09600","-54.91000","170","7021.294"
"150620","1506203","ATIVO","12062","523","Salinópolis","SALINOPOLIS","","","","S","N","N","15","1504","15009","1590","1504","15900","1590","1590","1933","","","-0.62900","-47.35600","21","217.856"
"150630","1506302","ATIVO","12063","525","Salvaterra","SALVATERRA","","","","S","N","N","15","1502","15006","1590","1507","15900","1590","1590","1961","","","-0.75300","-48.51700","5","1043.504"
"150635","1506351","ATIVO","12118","369","Santa Bárbara do Pará","SANTA BARBARA DO PARA","","","","S","N","N","15","1503","15007","1590","1501","15900","1501","1501","1993","","","-1.22400","-48.29400","21","278.151"
"150640","1506401","ATIVO","12064","527","Santa Cruz do Arari","SANTA CRUZ DO ARARI","","","","S","N","N","15","1502","15006","1590","1507","15900","1590","1590","1961","","","-0.66400","-49.16300","6","1074.854"
"150650","1506500","ATIVO","12065","529","Santa Isabel do Pará","SANTA ISABEL DO PARA","","","","S","N","N","15","1503","15008","1590","1502","15900","1590","1590","1933","","","-1.29900","-48.16100","24","717.615"
"150655","1506559","ATIVO","12119","371","Santa Luzia do Pará","SANTA LUZIA DO PARA","","","","S","N","N","15","1504","15013","1590","1504","15900","1590","1590","1993","","","-1.51700","-46.94200","0","1350.772"
"150658","1506583","ATIVO","12100","599","Santa Maria das Barreiras","SANTA MARIA DAS BARREIRAS","","","","S","N","N","15","1506","15022","1590","1512","15900","1590","1590","1989","","","-8.85500","-49.72200","150","10330.170"
"150660","1506609","ATIVO","12066","531","Santa Maria do Pará","SANTA MARIA DO PARA","","","","S","N","N","15","1504","15010","1590","1505","15900","1590","1590","1961","","","-1.35200","-47.57600","51","457.717"
"150670","1506708","ATIVO","12067","533","Santana do Araguaia","SANTANA DO ARAGUAIA","","","","S","N","N","15","1506","15022","1590","1512","15900","1590","1590","1961","","","-9.50500","-50.62500","160","11591.452"
"150680","1506807","ATIVO","12068","535","Santarém","SANTAREM","","","","S","N","N","15","1501","15002","1590","1509","15900","1590","1590","1755","","","-2.44300","-54.70800","51","22887.080"
"150690","1506906","ATIVO","12069","537","Santarém Novo","SANTAREM NOVO","","","","S","N","N","15","1504","15010","1590","1504","15900","1590","1590","1961","","","-0.92900","-47.39700","30","229.507"
"150700","1507003","ATIVO","12070","539","Santo Antônio do Tauá","SANTO ANTONIO DO TAUA","","","","S","N","N","15","1503","15008","1590","1502","15900","1590","1590","1961","","","-1.15200","-48.12900","17","537.627"
"150710","1507102","ATIVO","12071","541","São Caetano de Odivelas","SAO CAETANO DE ODIVELAS","","","","S","N","N","15","1504","15009","1590","1502","15900","1590","1590","1935","","","-0.75000","-48.02000","5","748.694"
"150715","1507151","ATIVO","12127","381","São Domingos do Araguaia","SAO DOMINGOS DO ARAGUAIA","","","","S","N","N","15","1506","15020","1590","1511","15900","1590","1590","1993","","","-5.53800","-48.73300","130","1392.326"
"150720","1507201","ATIVO","12072","543","São Domingos do Capim","SAO DOMINGOS DO CAPIM","","","","S","N","N","15","1504","15013","1590","1503","15900","1590","1590","1890","","","-1.67500","-47.77500","20","1677.080"
"150730","1507300","ATIVO","12073","545","São Félix do Xingu","SAO FELIX DO XINGU","","","","S","N","N","15","1506","15018","1590","1512","15900","1590","1590","1961","","","-6.64500","-51.99500","220","84212.426"
"150740","1507409","ATIVO","12074","547","São Francisco do Pará","SAO FRANCISCO DO PARA","","","","S","N","N","15","1504","15010","1590","1503","15900","1590","1590","1943","","","-1.16900","-47.79500","46","479.558"
"150745","1507458","ATIVO","12101","619","São Geraldo do Araguaia","SAO GERALDO DO ARAGUAIA","","","","S","N","N","15","1506","15021","1590","1511","15900","1590","1590","1989","","","-6.40100","-48.55500","145","3269.541"
"150746","1507466","ATIVO","12141","64","São João da Ponta","SAO JOAO DA PONTA","","","","S","N","N","15","1504","15009","1590","1503","15900","1590","1590","1997","","","-0.85000","-47.92000","34","195.987"
"150747","1507474","ATIVO","12102","393","São João de Pirabas","SAO JOAO DE PIRABAS","","","","S","N","N","15","1504","15009","1590","1504","15900","1590","1590","1989","","","-0.76900","-47.17400","35","701.896"
"150750","1507508","ATIVO","12075","549","São João do Araguaia","SAO JOAO DO ARAGUAIA","","","","S","N","N","15","1506","15020","1590","1511","15900","1590","1590","1961","","","-5.35800","-48.79100","99","1280.010"
"150760","1507607","ATIVO","12076","551","São Miguel do Guamá","SAO MIGUEL DO GUAMA","","","","S","N","N","15","1504","15013","1590","1505","15900","1590","1590","1870","","","-1.62700","-47.48300","10","1110.149"
"150770","1507706","ATIVO","12077","553","São Sebastião da Boa Vista","SAO SEBASTIAO DA BOA VISTA","","","","S","N","N","15","1502","15005","1590","1507","15900","1590","1590","1943","","","-1.71800","-49.54100","2","1632.218"
"150775","1507755","ATIVO","12142","66","Sapucaia","SAPUCAIA","","","","S","N","N","15","1506","15021","1590","1512","15900","1590","1590","1997","","","-6.94700","-49.68200","190","1298.180"
"150780","1507805","ATIVO","12078","555","Senador José Porfírio","SENADOR JOSE PORFIRIO","","","","S","N","N","15","1505","15015","1590","1510","15900","1590","1590","1961","","","-2.59100","-51.95400","20","14374.090"
"150790","1507904","ATIVO","12079","557","Soure","SOURE","","","","S","N","N","15","1502","15006","1590","1507","15900","1590","1590","1847","","","-0.71700","-48.52300","10","3512.863"
"150795","1507953","ATIVO","12103","395","Tailândia","TAILANDIA","","","","S","N","N","15","1504","15012","1590","1506","15900","1590","1590","1989","","","-2.94700","-48.95300","460","4430.190"
"150796","1507961","ATIVO","12128","373","Terra Alta","TERRA ALTA","","","","S","N","N","15","1504","15009","1590","1503","15900","1590","1590","1993","","","-1.03800","-47.90800","35","206.412"
"150797","1507979","ATIVO","12120","637","Terra Santa","TERRA SANTA","","","","S","N","N","15","1501","15001","1590","1509","15900","1590","1590","1993","","","-2.10400","-56.48700","18","1900.570"
"150800","1508001","ATIVO","12080","559","Tomé-Açu","TOME-ACU","","","","S","N","N","15","1504","15012","1590","1502","15900","1590","1590","1959","","","-2.41900","-48.15200","45","5145.325"
"150803","1508035","ATIVO","12143","68","Tracuateua","TRACUATEUA","","","","S","N","N","15","1504","15010","1590","1504","15900","1590","1590","1997","","","-1.07200","-46.89700","20","852.219"
"150805","1508050","ATIVO","12121","635","Trairão","TRAIRAO","","","","S","N","N","15","1505","15014","1590","1509","15900","1590","1590","1993","","","-4.57400","-55.94400","105","11991.015"
"150808","1508084","ATIVO","12104","397","Tucumã","TUCUMA","","","","S","N","N","15","1506","15018","1590","1512","15900","1590","1590","1989","","","-6.74800","-51.16100","34","2512.583"
"150810","1508100","ATIVO","12081","561","Tucuruí","TUCURUI","","","","S","N","N","15","1506","15016","1590","1511","15900","1590","1590","1947","","","-3.76800","-49.67300","42","2086.170"
"150812","1508126","ATIVO","12122","623","Ulianópolis","ULIANOPOLIS","","","","S","N","N","15","1506","15017","1590","1505","15900","1590","1590","1993","","","-3.75600","-47.50100","130","5081.069"
"150815","1508159","ATIVO","12105","399","Uruará","URUARA","","","","S","N","N","15","1505","15015","1590","1510","15900","1590","1590","1989","","","-3.71800","-53.73700","129","10791.315"
"150820","1508209","ATIVO","12082","563","Vigia","VIGIA","","","","S","N","N","15","1504","15009","1590","1502","15900","1590","1590","1698","","","-0.85800","-48.14200","6","533.855"
"150830","1508308","ATIVO","12083","565","Viseu","VISEU","","","","S","N","N","15","1504","15013","1590","1504","15900","1590","1590","1935","","","-1.19700","-46.14000","15","4904.138"
"150835","1508357","ATIVO","12123","641","Vitória do Xingu","VITORIA DO XINGU","","","","S","N","N","15","1505","15015","1590","1510","15900","1590","1590","1993","","","-2.88000","-52.01000","0","2966.329"
"150840","1508407","ATIVO","12087","571","Xinguara","XINGUARA","","","","S","N","N","15","1506","15021","1590","1512","15900","1590","1590","1982","","","-7.09500","-49.94600","279","3779.412"
"160000","1600000","IGNOR","25000","","Município ignorado - AP","MUNICIPIO IGNORADO - AP","",",169999",",1699999","N","N","N","16","1600","16000","1600","1600","16000","1600","1600","","","","0.00000","0.00000","0","0.000"
"160005","1600055","ATIVO","25010","665","Serra do Navio","SERRA DO NAVIO","Ex Água Branca do Amapari","","","S","S","N","16","1602","16003","1690","1601","16900","1690","1690","1993","","","0.89600","-52.00200","0","7756.506"
"160010","1600105","ATIVO","25001","601","Amapá","AMAPA","","","","S","S","N","16","1601","16002","1690","1602","16900","1690","1690","1956","","","2.05300","-50.79300","8","9168.787"
"160015","1600154","ATIVO","25011","663","Pedra Branca do Amapari","PEDRA BRANCA DO AMAPARI","Ex Amapari","","","S","S","N","16","1602","16003","1690","1601","16900","1690","1690","1993","","","0.77800","-51.94400","0","9495.032"
"160020","1600204","ATIVO","25002","603","Calçoene","CALCOENE","","","","S","S","N","16","1601","16001","1690","1602","16900","1690","1690","1956","","","2.49800","-50.94900","12","14269.258"
"160021","1600212","ATIVO","25012","667","Cutias","CUTIAS","","","","S","N","N","16","1602","16003","1690","1601","16900","1690","1690","1993","","","0.98600","-50.80200","0","2114.732"
"160023","1600238","ATIVO","25006","611","Ferreira Gomes","FERREIRA GOMES","","","","S","S","N","16","1602","16003","1690","1601","16900","1690","1690","1989","","","0.85800","-51.18000","50","5046.696"
"160025","1600253","ATIVO","25013","669","Itaubal","ITAUBAL","","","","S","N","N","16","1602","16003","1690","1601","16900","1690","1690","1993","","","0.59600","-50.67100","27","1703.793"
"160027","1600279","ATIVO","25007","613","Laranjal do Jari","LARANJAL DO JARI","","","","S","S","N","16","1602","16004","1690","1601","16900","1690","1690","1989","","","-0.84200","-52.51600","22","30966.177"
"160030","1600303","ATIVO","25003","605","Macapá","MACAPA","","","","S","N","S","16","1602","16003","1690","1601","16900","1690","1601","1943","","","0.03900","-51.06600","16","6407.123"
"160040","1600402","ATIVO","25004","607","Mazagão","MAZAGAO","","","","S","N","N","16","1602","16004","1690","1601","16900","1690","1690","1841","","","-0.11500","-51.28900","60","13130.892"
"160050","1600501","ATIVO","25005","609","Oiapoque","OIAPOQUE","","","","S","S","N","16","1601","16001","1690","1601","16900","1690","1690","1945","","","3.84300","-51.83500","10","22625.018"
"160053","1600535","ATIVO","25014","671","Porto Grande","PORTO GRANDE","","","","S","N","N","16","1602","16003","1690","1601","16900","1690","1690","1993","","","0.71300","-51.41300","60","4401.763"
"160055","1600550","ATIVO","25015","673","Pracuúba","PRACUUBA","","","","S","S","N","16","1601","16002","1690","1602","16900","1690","1690","1993","","","1.74300","-50.79100","0","4956.739"
"160060","1600600","ATIVO","25008","615","Santana","SANTANA","","","","S","N","N","16","1602","16003","1690","1601","16900","1690","1690","1989","","","-0.05800","-51.18200","15","1577.517"
"160070","1600709","ATIVO","25009","617","Tartarugalzinho","TARTARUGALZINHO","","","","S","N","N","16","1601","16002","1690","1602","16900","1690","1690","1989","","","1.50600","-50.91200","13","6711.950"
"160080","1600808","ATIVO","25016","70","Vitória do Jari","VITORIA DO JARI","","","","S","N","N","16","1602","16004","1690","1601","16900","1690","1690","1997","","","-0.93800","-52.42400","0","2482.602"
"170000","1700000","IGNOR","28000","9734","Município ignorado - TO","MUNICIPIO IGNORADO - TO","",",179999,170172,171350,172206",",1799999,1701721,1713502,1722065","N","N","N","17","1700","17000","1700","1700","17000","1700","1700","","","","0.00000","0.00000","0","0.000"
"170025","1700251","ATIVO","28081","337","Abreulândia","ABREULANDIA","","","","S","N","N","17","1701","17003","1790","1708","17900","1790","1790","1993","","","-9.62100","-49.15100","245","1895.201"
"170030","1700301","ATIVO","28126","72","Aguiarnópolis","AGUIARNOPOLIS","","","","S","N","N","17","1701","17001","1790","1701","17900","1790","1790","1997","","","-6.56300","-47.46600","150","235.391"
"170035","1700350","ATIVO","28001","9441","Aliança do Tocantins","ALIANCA DO TOCANTINS","","","","S","N","N","17","1701","17005","1790","1707","17900","1790","1790","1989","","","-11.30600","-48.93600","333","1579.742"
"170040","1700400","ATIVO","28002","9207","Almas","ALMAS","","","","S","N","N","17","1702","17008","1790","1709","17900","1790","1790","1989","","","-11.57400","-47.17000","397","4021.111"
"170070","1700707","ATIVO","28003","9213","Alvorada","ALVORADA","","","","S","N","N","17","1701","17005","1790","1707","17900","1790","1790","1989","","","-12.48000","-49.12500","289","1212.161"
"170100","1701002","ATIVO","28004","9219","Ananás","ANANAS","","","","S","N","N","17","1701","17001","1790","1701","17900","1790","1790","1989","","","-6.36600","-48.07300","220","1587.000"
"170105","1701051","ATIVO","28082","165","Angico","ANGICO","","","","S","N","N","17","1701","17001","1790","1701","17900","1790","1790","1993","","","-6.39000","-47.86500","290","438.703"
"170110","1701101","ATIVO","28005","9713","Aparecida do Rio Negro","APARECIDA DO RIO NEGRO","","","","S","N","N","17","1702","17006","1790","1705","17900","1790","1790","1989","","","-9.95200","-47.97200","265","1160.363"
"170130","1701309","ATIVO","28083","167","Aragominas","ARAGOMINAS","","","","S","N","N","17","1701","17002","1790","1702","17900","1790","1790","1993","","","-7.16200","-48.52800","345","1173.026"
"170190","1701903","ATIVO","28006","9237","Araguacema","ARAGUACEMA","","","","S","N","N","17","1701","17003","1790","1708","17900","1790","1790","1989","","","-8.80400","-49.55600","159","2778.452"
"170200","1702000","ATIVO","28007","9239","Araguaçu","ARAGUACU","","","","S","N","N","17","1701","17004","1790","1710","17900","1790","1790","1989","","","-12.93100","-49.82600","278","5167.886"
"170210","1702109","ATIVO","28008","9241","Araguaína","ARAGUAINA","","","","S","N","N","17","1701","17002","1790","1702","17900","1790","1790","1989","","","-7.19100","-48.20700","227","4000.395"
"170215","1702158","ATIVO","28084","169","Araguanã","ARAGUANA","","","","S","N","N","17","1701","17002","1790","1702","17900","1790","1790","1993","","","-6.58100","-48.64400","142","834.701"
"170220","1702208","ATIVO","28009","9243","Araguatins","ARAGUATINS","","","","S","N","N","17","1701","17001","1790","1701","17900","1790","1790","1989","","","-5.65100","-48.12400","103","2627.280"
"170230","1702307","ATIVO","28010","9245","Arapoema","ARAPOEMA","","","","S","N","N","17","1701","17002","1790","1704","17900","1790","1790","1989","","","-7.65800","-49.06400","221","1552.207"
"170240","1702406","ATIVO","28011","9247","Arraias","ARRAIAS","","","","S","N","N","17","1702","17008","1790","1709","17900","1790","1790","1889","","","-12.93100","-46.93800","682","5786.844"
"170255","1702554","ATIVO","28012","9685","Augustinópolis","AUGUSTINOPOLIS","","","","S","N","N","17","1701","17001","1790","1701","17900","1790","1790","1989","","","-5.46600","-47.88800","145","414.370"
"170270","1702703","ATIVO","28013","9253","Aurora do Tocantins","AURORA DO TOCANTINS","","","","S","N","N","17","1702","17008","1790","1709","17900","1790","1790","1989","","","-12.71300","-46.40800","468","752.826"
"170290","1702901","ATIVO","28014","9257","Axixá do Tocantins","AXIXA DO TOCANTINS","","","","S","N","N","17","1701","17001","1790","1701","17900","1790","1790","1989","","","-5.61700","-47.76900","210","150.214"
"170300","1703008","ATIVO","28015","9259","Babaçulândia","BABACULANDIA","","","","S","N","N","17","1701","17002","1790","1702","17900","1790","1790","1989","","","-7.20500","-47.75700","178","1788.442"
"170305","1703057","ATIVO","28127","74","Bandeirantes do Tocantins","BANDEIRANTES DO TOCANTINS","","","","S","N","N","17","1701","17002","1790","1704","17900","1790","1790","1997","","","-7.75600","-48.58400","288","1672.322"
"170307","1703073","ATIVO","28128","76","Barra do Ouro","BARRA DO OURO","","","","S","N","N","17","1702","17007","1790","1703","17900","1790","1790","1997","","","-7.68900","-47.68300","161","1106.339"
"170310","1703107","ATIVO","28016","9693","Barrolândia","BARROLANDIA","","","","S","N","N","17","1701","17003","1790","1708","17900","1790","1790","1989","","","-9.83600","-48.72500","361","713.297"
"170320","1703206","ATIVO","28017","9695","Bernardo Sayão","BERNARDO SAYAO","","","","S","N","N","17","1701","17003","1790","1704","17900","1790","1790","1989","","","-7.87400","-48.88800","149","926.884"
"170330","1703305","ATIVO","28085","341","Bom Jesus do Tocantins","BOM JESUS DO TOCANTINS","","","","S","N","N","17","1702","17006","1790","1703","17900","1790","1790","1993","","","-8.96500","-48.16600","204","1332.665"
"170360","1703602","ATIVO","28086","339","Brasilândia do Tocantins","BRASILANDIA DO TOCANTINS","","","","S","N","N","17","1701","17003","1790","1704","17900","1790","1790","1993","","","-8.38800","-48.48100","224","641.464"
"170370","1703701","ATIVO","28018","9273","Brejinho de Nazaré","BREJINHO DE NAZARE","","","","S","N","N","17","1701","17005","1790","1705","17900","1790","1790","1989","","","-11.00000","-48.56600","247","1724.441"
"170380","1703800","ATIVO","28019","9715","Buriti do Tocantins","BURITI DO TOCANTINS","","","","S","N","N","17","1701","17001","1790","1701","17900","1790","1790","1989","","","-5.31600","-48.22900","198","249.906"
"170382","1703826","ATIVO","28087","171","Cachoeirinha","CACHOEIRINHA","","","","S","N","N","17","1701","17001","1790","1701","17900","1790","1790","1993","","","-6.12200","-47.92200","190","352.343"
"170384","1703842","ATIVO","28088","173","Campos Lindos","CAMPOS LINDOS","","","","S","N","N","17","1702","17007","1790","1703","17900","1790","1790","1993","","","-7.99400","-46.86800","0","3240.156"
"170386","1703867","ATIVO","28089","327","Cariri do Tocantins","CARIRI DO TOCANTINS","","","","S","N","N","17","1701","17005","1790","1707","17900","1790","1790","1993","","","-11.89100","-49.16100","295","1128.596"
"170388","1703883","ATIVO","28090","175","Carmolândia","CARMOLANDIA","","","","S","N","N","17","1701","17002","1790","1702","17900","1790","1790","1993","","","-7.03300","-48.39600","0","339.401"
"170389","1703891","ATIVO","28091","177","Carrasco Bonito","CARRASCO BONITO","","","","S","N","N","17","1701","17001","1790","1701","17900","1790","1790","1993","","","-5.32200","-48.03500","285","195.017"
"170390","1703909","ATIVO","28020","9717","Caseara","CASEARA","","","","S","N","N","17","1701","17003","1790","1708","17900","1790","1790","1989","","","-9.27800","-49.95600","174","1691.612"
"170410","1704105","ATIVO","28092","343","Centenário","CENTENARIO","","","","S","N","N","17","1702","17007","1790","1703","17900","1790","1790","1993","","","-8.95100","-47.33600","0","1954.688"
"170460","1704600","ATIVO","28129","78","Chapada de Areia","CHAPADA DE AREIA","","","","S","N","N","17","1701","17004","1790","1708","17900","1790","1790","1997","","","-10.14400","-49.14000","240","659.244"
"170510","1705102","ATIVO","28130","80","Chapada da Natividade","CHAPADA DA NATIVIDADE","","","","S","N","N","17","1702","17008","1790","1709","17900","1790","1790","1997","","","-11.61700","-47.75100","365","1671.256"
"170550","1705508","ATIVO","28021","9311","Colinas do Tocantins","COLINAS DO TOCANTINS","","","","S","N","N","17","1701","17002","1790","1704","17900","1790","1790","1989","","","-8.05900","-48.47500","227","843.840"
"170555","1705557","ATIVO","28022","9697","Combinado","COMBINADO","","","","S","N","N","17","1702","17008","1790","1709","17900","1790","1790","1989","","","-12.79200","-46.53900","383","209.613"
"170560","1705607","ATIVO","28023","9313","Conceição do Tocantins","CONCEICAO DO TOCANTINS","","","","S","N","N","17","1702","17008","1790","1709","17900","1790","1790","1989","","","-12.21900","-47.29800","400","2500.733"
"170600","1706001","ATIVO","28024","9321","Couto de Magalhães","COUTO DE MAGALHAES","","","","S","N","N","17","1701","17003","1790","1704","17900","1790","1790","1989","","","-8.28400","-49.24700","150","1585.773"
"170610","1706100","ATIVO","28025","9323","Cristalândia","CRISTALANDIA","","","","S","N","N","17","1701","17004","1790","1710","17900","1790","1790","1989","","","-10.60000","-49.19300","286","1848.231"
"170625","1706258","ATIVO","28131","82","Crixás do Tocantins","CRIXAS DO TOCANTINS","","","","S","N","N","17","1701","17005","1790","1705","17900","1790","1790","1997","","","-11.10000","-48.91900","250","986.689"
"170650","1706506","ATIVO","28093","179","Darcinópolis","DARCINOPOLIS","","","","S","N","N","17","1701","17001","1790","1701","17900","1790","1790","1993","","","-6.71300","-47.76000","0","1548.890"
"170700","1707009","ATIVO","28026","9341","Dianópolis","DIANOPOLIS","","","","S","N","N","17","1702","17008","1790","1709","17900","1790","1790","1989","","","-11.62800","-46.82100","693","3217.179"
"170710","1707108","ATIVO","28027","9719","Divinópolis do Tocantins","DIVINOPOLIS DO TOCANTINS","","","","S","N","N","17","1701","17003","1790","1708","17900","1790","1790","1989","","","-9.80000","-49.21400","270","2347.421"
"170720","1707207","ATIVO","28028","9345","Dois Irmãos do Tocantins","DOIS IRMAOS DO TOCANTINS","","","","S","N","N","17","1701","17003","1790","1708","17900","1790","1790","1989","","","-9.25800","-49.06400","241","3757.015"
"170730","1707306","ATIVO","28029","9347","Dueré","DUERE","","","","S","N","N","17","1701","17004","1790","1710","17900","1790","1790","1989","","","-11.34400","-49.27100","235","3424.836"
"170740","1707405","ATIVO","28094","181","Esperantina","ESPERANTINA","","","","S","N","N","17","1701","17001","1790","1701","17900","1790","1790","1993","","","-5.34300","-48.51100","0","504.019"
"170755","1707553","ATIVO","28030","9683","Fátima","FATIMA","","","","S","N","N","17","1701","17004","1790","1705","17900","1790","1790","1989","","","-10.76100","-48.90700","342","382.908"
"170765","1707652","ATIVO","28031","9667","Figueirópolis","FIGUEIROPOLIS","","","","S","N","N","17","1701","17005","1790","1707","17900","1790","1790","1989","","","-12.13100","-49.17400","291","1930.064"
"170770","1707702","ATIVO","28032","9355","Filadélfia","FILADELFIA","","","","S","N","N","17","1701","17002","1790","1702","17900","1790","1790","1989","","","-7.33600","-47.49000","169","1988.068"
"170820","1708205","ATIVO","28033","9365","Formoso do Araguaia","FORMOSO DO ARAGUAIA","","","","S","N","N","17","1701","17004","1790","1710","17900","1790","1790","1989","","","-11.79700","-49.52900","240","13423.256"
"170825","1708254","ATIVO","28095","345","Fortaleza do Tabocão","FORTALEZA DO TABOCAO","","","","S","N","N","17","1701","17003","1790","1704","17900","1790","1790","1993","","","-9.05700","-48.51900","0","621.558"
"170830","1708304","ATIVO","28034","9699","Goianorte","GOIANORTE","","","","S","N","N","17","1701","17003","1790","1704","17900","1790","1790","1989","","","-8.77600","-48.93200","256","1800.974"
"170900","1709005","ATIVO","28035","9533","Goiatins","GOIATINS","","","","S","N","N","17","1702","17007","1790","1703","17900","1790","1790","1989","","","-7.71000","-47.31400","192","6408.562"
"170930","1709302","ATIVO","28036","9627","Guaraí","GUARAI","","","","S","N","N","17","1701","17003","1790","1704","17900","1790","1790","1989","","","-8.83400","-48.51000","259","2268.147"
"170950","1709500","ATIVO","28037","9385","Gurupi","GURUPI","","","","S","N","N","17","1701","17005","1790","1707","17900","1790","1790","1958","","","-11.72900","-49.06900","287","1836.081"
"170980","1709807","ATIVO","28132","84","Ipueiras","IPUEIRAS","","","","S","N","N","17","1702","17006","1790","1705","17900","1790","1790","1997","","","-11.23900","-48.46300","237","815.250"
"171050","1710508","ATIVO","28038","9405","Itacajá","ITACAJA","","","","S","N","N","17","1702","17007","1790","1703","17900","1790","1790","1989","","","-8.39200","-47.76800","196","3051.341"
"171070","1710706","ATIVO","28039","9409","Itaguatins","ITAGUATINS","","","","S","N","N","17","1701","17001","1790","1701","17900","1790","1790","1989","","","-5.76800","-47.48100","130","739.846"
"171090","1710904","ATIVO","28096","347","Itapiratins","ITAPIRATINS","","","","S","N","N","17","1702","17007","1790","1703","17900","1790","1790","1993","","","-8.38400","-48.11100","160","1243.954"
"171110","1711100","ATIVO","28040","9417","Itaporã do Tocantins","ITAPORA DO TOCANTINS","","","","S","N","N","17","1701","17003","1790","1704","17900","1790","1790","1989","","","-8.57100","-48.68900","350","918.916"
"171150","1711506","ATIVO","28097","329","Jaú do Tocantins","JAU DO TOCANTINS","","","","S","N","N","17","1701","17005","1790","1707","17900","1790","1790","1993","","","-12.65400","-48.59400","365","2173.038"
"171180","1711803","ATIVO","28098","349","Juarina","JUARINA","","","","S","N","N","17","1701","17003","1790","1704","17900","1790","1790","1993","","","-8.11900","-49.06500","180","481.046"
"171190","1711902","ATIVO","28099","367","Lagoa da Confusão","LAGOA DA CONFUSAO","","","","S","N","N","17","1701","17004","1790","1710","17900","1790","1790","1993","","","-10.79400","-49.62400","0","10564.512"
"171195","1711951","ATIVO","28100","353","Lagoa do Tocantins","LAGOA DO TOCANTINS","","","","S","N","N","17","1702","17007","1790","1706","17900","1790","1790","1993","","","-10.37800","-47.55100","0","911.336"
"171200","1712009","ATIVO","28101","351","Lajeado","LAJEADO","","","","S","N","N","17","1702","17006","1790","1705","17900","1790","1790","1993","","","-9.75100","-48.35800","202","322.481"
"171215","1712157","ATIVO","28133","86","Lavandeira","LAVANDEIRA","","","","S","N","N","17","1702","17008","1790","1709","17900","1790","1790","1997","","","-12.78900","-46.50600","330","519.569"
"171240","1712405","ATIVO","28041","9569","Lizarda","LIZARDA","","","","S","N","N","17","1702","17007","1790","1706","17900","1790","1790","1989","","","-9.59400","-46.67300","423","5723.201"
"171245","1712454","ATIVO","28134","88","Luzinópolis","LUZINOPOLIS","","","","S","N","N","17","1701","17001","1790","1701","17900","1790","1790","1997","","","-6.18200","-47.85600","250","279.562"
"171250","1712504","ATIVO","28042","9711","Marianópolis do Tocantins","MARIANOPOLIS DO TOCANTINS","","","","S","N","N","17","1701","17003","1790","1708","17900","1790","1790","1989","","","-9.79600","-49.65400","146","2091.364"
"171270","1712702","ATIVO","28102","317","Mateiros","MATEIROS","","","","S","N","N","17","1702","17007","1790","1706","17900","1790","1790","1993","","","-10.54800","-46.42100","493","9591.543"
"171280","1712801","ATIVO","28103","183","Maurilândia do Tocantins","MAURILANDIA DO TOCANTINS","","","","S","N","N","17","1701","17001","1790","1701","17900","1790","1790","1993","","","-5.95300","-47.50600","0","738.101"
"171320","1713205","ATIVO","28043","9461","Miracema do Tocantins","MIRACEMA DO TOCANTINS","","","","S","N","N","17","1701","17003","1790","1705","17900","1790","1790","1989","","","-9.56700","-48.39200","197","2656.078"
"171330","1713304","ATIVO","28044","9463","Miranorte","MIRANORTE","","","","S","N","N","17","1701","17003","1790","1708","17900","1790","1790","1989","","","-9.52900","-48.59000","222","1031.616"
"171360","1713601","ATIVO","28045","9469","Monte do Carmo","MONTE DO CARMO","","","","S","N","N","17","1702","17006","1790","1705","17900","1790","1790","1989","","","-10.76300","-48.10900","295","3616.655"
"171370","1713700","ATIVO","28135","90","Monte Santo do Tocantins","MONTE SANTO DO TOCANTINS","","","","S","N","N","17","1701","17003","1790","1708","17900","1790","1790","1997","","","-10.00400","-48.99500","280","1091.548"
"171380","1713809","ATIVO","28104","185","Palmeiras do Tocantins","PALMEIRAS DO TOCANTINS","Ex Mosquito","","","S","N","N","17","1701","17001","1790","1701","17900","1790","1790","1993","","","-6.61300","-47.54600","0","747.895"
"171395","1713957","ATIVO","28105","187","Muricilândia","MURICILANDIA","","","","S","N","N","17","1701","17002","1790","1702","17900","1790","1790","1993","","","-7.14700","-48.61100","190","1187.798"
"171420","1714203","ATIVO","28046","9481","Natividade","NATIVIDADE","","","","S","N","N","17","1702","17008","1790","1709","17900","1790","1790","1889","","","-11.71000","-47.72300","323","3215.903"
"171430","1714302","ATIVO","28047","9483","Nazaré","NAZARE","","","","S","N","N","17","1701","17001","1790","1701","17900","1790","1790","1989","","","-6.37200","-47.66400","240","395.903"
"171488","1714880","ATIVO","28048","9663","Nova Olinda","NOVA OLINDA","","","","S","N","N","17","1701","17002","1790","1702","17900","1790","1790","1989","","","-7.63200","-48.42300","257","1566.237"
"171500","1715002","ATIVO","28049","9721","Nova Rosalândia","NOVA ROSALANDIA","","","","S","N","N","17","1701","17004","1790","1708","17900","1790","1790","1989","","","-10.56700","-48.91400","255","488.636"
"171510","1715101","ATIVO","28050","9499","Novo Acordo","NOVO ACORDO","","","","S","N","N","17","1702","17007","1790","1706","17900","1790","1790","1989","","","-9.96300","-47.67700","205","2671.882"
"171515","1715150","ATIVO","28080","9703","Novo Alegre","NOVO ALEGRE","","","","S","N","N","17","1702","17008","1790","1709","17900","1790","1790","1993","","","-12.93100","-46.57400","539","200.105"
"171525","1715259","ATIVO","28106","321","Novo Jardim","NOVO JARDIM","","","","S","N","N","17","1702","17008","1790","1709","17900","1790","1790","1993","","","-11.82400","-46.62800","0","1309.658"
"171550","1715507","ATIVO","28136","92","Oliveira de Fátima","OLIVEIRA DE FATIMA","","","","S","N","N","17","1701","17004","1790","1705","17900","1790","1790","1997","","","-10.70800","-48.90700","302","205.849"
"171570","1715705","ATIVO","28107","189","Palmeirante","PALMEIRANTE","","","","S","N","N","17","1701","17002","1790","1702","17900","1790","1790","1993","","","-7.86000","-47.92600","140","2640.738"
"171575","1715754","ATIVO","28051","9649","Palmeirópolis","PALMEIROPOLIS","","","","S","N","N","17","1701","17005","1790","1707","17900","1790","1790","1989","","","-13.04400","-48.40200","438","1703.936"
"171610","1716109","ATIVO","28052","9519","Paraíso do Tocantins","PARAISO DO TOCANTINS","","","","S","N","N","17","1701","17004","1790","1708","17900","1790","1790","1989","","","-10.17600","-48.86700","387","1297.018"
"171620","1716208","ATIVO","28053","9521","Paranã","PARANA","","","","S","N","N","17","1702","17008","1790","1709","17900","1790","1790","1989","","","-12.61500","-47.88300","274","11260.151"
"171630","1716307","ATIVO","28108","191","Pau D'Arco","PAU D'ARCO","","","","S","N","N","17","1701","17002","1790","1704","17900","1790","1790","1993","","","-7.54000","-49.37200","0","1300.970"
"171650","1716505","ATIVO","28054","9525","Pedro Afonso","PEDRO AFONSO","","","","S","N","N","17","1702","17006","1790","1703","17900","1790","1790","1989","","","-8.96800","-48.17500","201","2010.892"
"171660","1716604","ATIVO","28055","9527","Peixe","PEIXE","","","","S","N","N","17","1701","17005","1790","1707","17900","1790","1790","1989","","","-12.02500","-48.53900","240","5291.182"
"171665","1716653","ATIVO","28056","9705","Pequizeiro","PEQUIZEIRO","","","","S","N","N","17","1701","17003","1790","1704","17900","1790","1790","1989","","","-8.59500","-48.93400","283","1209.798"
"171670","1716703","ATIVO","28057","9529","Colméia","COLMEIA","","","","S","N","N","17","1701","17003","1790","1704","17900","1790","1790","1989","","","-8.72900","-48.76500","362","990.712"
"171700","1717008","ATIVO","28058","9537","Pindorama do Tocantins","PINDORAMA DO TOCANTINS","","","","S","N","N","17","1702","17008","1790","1709","17900","1790","1790","1989","","","-11.13900","-47.57900","429","1559.080"
"171720","1717206","ATIVO","28109","355","Piraquê","PIRAQUE","","","","S","N","N","17","1701","17002","1790","1702","17900","1790","1790","1993","","","-6.77400","-48.29700","186","921.585"
"171750","1717503","ATIVO","28059","9547","Pium","PIUM","","","","S","N","N","17","1701","17004","1790","1708","17900","1790","1790","1989","","","-10.44300","-49.18200","249","10012.666"
"171780","1717800","ATIVO","28060","9551","Ponte Alta do Bom Jesus","PONTE ALTA DO BOM JESUS","","","","S","N","N","17","1702","17008","1790","1709","17900","1790","1790","1989","","","-12.09100","-46.47900","512","1806.132"
"171790","1717909","ATIVO","28061","9553","Ponte Alta do Tocantins","PONTE ALTA DO TOCANTINS","","","","S","N","N","17","1702","17007","1790","1706","17900","1790","1790","1989","","","-10.74400","-47.53600","294","6491.089"
"171800","1718006","ATIVO","28062","9723","Porto Alegre do Tocantins","PORTO ALEGRE DO TOCANTINS","","","","S","N","N","17","1702","17008","1790","1709","17900","1790","1790","1989","","","-11.60900","-47.04900","387","501.970"
"171820","1718204","ATIVO","28063","9559","Porto Nacional","PORTO NACIONAL","","","","S","N","N","17","1702","17006","1790","1705","17900","1790","1790","1989","","","-10.70800","-48.41700","212","4449.892"
"171830","1718303","ATIVO","28064","9725","Praia Norte","PRAIA NORTE","","","","S","N","N","17","1701","17001","1790","1701","17900","1790","1790","1989","","","-5.39300","-47.81100","122","289.052"
"171840","1718402","ATIVO","28065","9629","Presidente Kennedy","PRESIDENTE KENNEDY","","","","S","N","N","17","1701","17003","1790","1704","17900","1790","1790","1989","","","-8.53900","-48.50600","247","770.418"
"171845","1718451","ATIVO","28137","94","Pugmil","PUGMIL","","","","S","N","N","17","1701","17004","1790","1708","17900","1790","1790","1997","","","-10.42400","-48.89400","340","401.689"
"171850","1718501","ATIVO","28125","357","Recursolândia","RECURSOLANDIA","","","","S","N","N","17","1702","17007","1790","1703","17900","1790","1790","1993","","","-8.73700","-47.24700","0","2216.650"
"171855","1718550","ATIVO","28110","193","Riachinho","RIACHINHO","","","","S","N","N","17","1701","17001","1790","1701","17900","1790","1790","1993","","","-6.43800","-48.13700","160","610.726"
"171865","1718659","ATIVO","28111","323","Rio da Conceição","RIO DA CONCEICAO","","","","S","N","N","17","1702","17008","1790","1709","17900","1790","1790","1993","","","-11.40000","-46.88300","496","771.112"
"171870","1718709","ATIVO","28112","359","Rio dos Bois","RIO DOS BOIS","","","","S","N","N","17","1701","17003","1790","1705","17900","1790","1790","1993","","","-9.29300","-48.46600","230","845.062"
"171875","1718758","ATIVO","28066","9679","Rio Sono","RIO SONO","","","","S","N","N","17","1702","17007","1790","1706","17900","1790","1790","1989","","","-9.34400","-47.90200","196","6357.117"
"171880","1718808","ATIVO","28067","9727","Sampaio","SAMPAIO","","","","S","N","N","17","1701","17001","1790","1701","17900","1790","1790","1989","","","-5.34800","-47.87300","115","200.813"
"171884","1718840","ATIVO","28113","331","Sandolândia","SANDOLANDIA","","","","S","N","N","17","1701","17004","1790","1710","17900","1790","1790","1993","","","-12.53700","-49.92500","0","3528.609"
"171886","1718865","ATIVO","28114","195","Santa Fé do Araguaia","SANTA FE DO ARAGUAIA","","","","S","N","N","17","1701","17002","1790","1702","17900","1790","1790","1993","","","-7.15700","-48.72100","190","1676.945"
"171888","1718881","ATIVO","28115","361","Santa Maria do Tocantins","SANTA MARIA DO TOCANTINS","","","","S","N","N","17","1702","17006","1790","1703","17900","1790","1790","1993","","","-8.79700","-47.79500","310","1410.446"
"171889","1718899","ATIVO","28138","96","Santa Rita do Tocantins","SANTA RITA DO TOCANTINS","","","","S","N","N","17","1701","17005","1790","1705","17900","1790","1790","1997","","","-10.86100","-48.91400","280","3274.930"
"171890","1718907","ATIVO","28068","9729","Santa Rosa do Tocantins","SANTA ROSA DO TOCANTINS","","","","S","N","N","17","1702","17008","1790","1709","17900","1790","1790","1989","","","-11.44900","-48.12100","310","1796.248"
"171900","1719004","ATIVO","28069","9731","Santa Tereza do Tocantins","SANTA TEREZA DO TOCANTINS","","","","S","N","N","17","1702","17007","1790","1706","17900","1790","1790","1989","","","-10.28200","-47.80800","263","539.908"
"172000","1720002","ATIVO","28139","98","Santa Terezinha do Tocantins","SANTA TEREZINHA DO TOCANTINS","","","","S","N","N","17","1701","17001","1790","1701","17900","1790","1790","1997","","","-6.43400","-47.67300","250","269.676"
"172010","1720101","ATIVO","28116","197","São Bento do Tocantins","SAO BENTO DO TOCANTINS","","","","S","N","N","17","1701","17001","1790","1701","17900","1790","1790","1993","","","-5.91500","-48.06000","230","1105.893"
"172015","1720150","ATIVO","28117","363","São Félix do Tocantins","SAO FELIX DO TOCANTINS","","","","S","N","N","17","1702","17007","1790","1706","17900","1790","1790","1993","","","-10.16800","-46.65900","0","1908.669"
"172020","1720200","ATIVO","28118","199","São Miguel do Tocantins","SAO MIGUEL DO TOCANTINS","","","","S","N","N","17","1701","17001","1790","1701","17900","1790","1790","1993","","","-5.55500","-47.57500","160","398.817"
"172025","1720259","ATIVO","28119","333","São Salvador do Tocantins","SAO SALVADOR DO TOCANTINS","","","","S","N","N","17","1701","17005","1790","1707","17900","1790","1790","1993","","","-12.74400","-48.23600","120","1422.025"
"172030","1720309","ATIVO","28070","9603","São Sebastião do Tocantins","SAO SEBASTIAO DO TOCANTINS","","","","S","N","N","17","1701","17001","1790","1701","17900","1790","1790","1963","","","-5.25700","-48.20000","105","287.271"
"172049","1720499","ATIVO","28071","9691","São Valério da Natividade","SAO VALERIO DA NATIVIDADE","","","","S","N","N","17","1702","17008","1790","1709","17900","1790","1790","1989","","","-11.97500","-48.23400","360","2519.572"
"172065","1720655","ATIVO","28072","9659","Silvanópolis","SILVANOPOLIS","","","","S","N","N","17","1702","17006","1790","1705","17900","1790","1790","1980","","","-11.14700","-48.16900","269","1258.824"
"172080","1720804","ATIVO","28073","9613","Sítio Novo do Tocantins","SITIO NOVO DO TOCANTINS","","","","S","N","N","17","1701","17001","1790","1701","17900","1790","1790","1963","","","-5.60100","-47.63800","200","324.102"
"172085","1720853","ATIVO","28120","335","Sucupira","SUCUPIRA","","","","S","N","N","17","1701","17005","1790","1707","17900","1790","1790","1993","","","-11.99300","-48.97100","250","1025.515"
"172090","1720903","ATIVO","28074","9615","Taguatinga","TAGUATINGA","","","","S","N","N","17","1702","17008","1790","1709","17900","1790","1790","1989","","","-12.40400","-46.43600","599","2437.386"
"172093","1720937","ATIVO","28121","325","Taipas do Tocantins","TAIPAS DO TOCANTINS","","","","S","N","N","17","1702","17008","1790","1709","17900","1790","1790","1993","","","-12.18800","-46.98900","407","1116.195"
"172097","1720978","ATIVO","28140","100","Talismã","TALISMA","","","","S","N","N","17","1701","17005","1790","1707","17900","1790","1790","1997","","","-12.79500","-49.09300","270","2156.892"
"172100","1721000","ATIVO","28075","9733","Palmas","PALMAS","Ex Taquarussu do Porto","","","S","N","S","17","1702","17006","1790","1705","17900","1790","1701","1989","","","-10.16700","-48.33300","230","2218.934"
"172110","1721109","ATIVO","28076","9619","Tocantínia","TOCANTINIA","","","","S","N","N","17","1702","17006","1790","1705","17900","1790","1790","1989","","","-9.56400","-48.37700","202","2601.587"
"172120","1721208","ATIVO","28077","9621","Tocantinópolis","TOCANTINOPOLIS","","","","S","N","N","17","1701","17001","1790","1701","17900","1790","1790","1989","","","-6.32900","-47.41600","134","1077.066"
"172125","1721257","ATIVO","28141","102","Tupirama","TUPIRAMA","","","","S","N","N","17","1701","17003","1790","1704","17900","1790","1790","1997","","","-8.97300","-48.18800","202","712.202"
"172130","1721307","ATIVO","28124","365","Tupiratins","TUPIRATINS","","","","S","N","N","17","1701","17003","1790","1704","17900","1790","1790","1993","","","-8.39400","-48.11600","160","895.302"
"172208","1722081","ATIVO","28078","9665","Wanderlândia","WANDERLANDIA","","","","S","N","N","17","1701","17002","1790","1702","17900","1790","1790","1989","","","-6.84900","-47.96300","257","1373.055"
"172210","1722107","ATIVO","28079","9643","Xambioá","XAMBIOA","","","","S","N","N","17","1701","17002","1790","1702","17900","1790","1790","1989","","","-6.41100","-48.53600","141","1633.769"
"210000","2100000","IGNOR","9000","","Município ignorado - MA","MUNICIPIO IGNORADO - MA","",",219999",",2199999","N","N","N","21","2100","21000","2100","2100","21000","2100","2100","","","","0.00000","0.00000","0","0.000"
"210005","2100055","ATIVO","9131","961","Açailândia","ACAILANDIA","","","","S","N","N","21","2102","21009","2190","2110","21900","2190","2190","1981","","","-4.94700","-47.50500","240","5806.307"
"210010","2100105","ATIVO","9001","701","Afonso Cunha","AFONSO CUNHA","","","","N","N","N","21","2104","21016","2190","2118","21900","2190","2190","1959","","","-4.13300","-43.32400","76","371.247"
"210015","2100154","ATIVO","9137","104","Água Doce do Maranhão","AGUA DOCE DO MARANHAO","","","","N","N","N","21","2104","21013","2190","2104","21900","2190","2190","1997","","","-2.84100","-42.11200","21","442.963"
"210020","2100204","ATIVO","9002","703","Alcântara","ALCANTARA","","","","S","N","N","21","2101","21001","2190","2101","21900","2190","2190","1648","","","-2.40900","-44.41500","32","1483.232"
"210030","2100303","ATIVO","9003","705","Aldeias Altas","ALDEIAS ALTAS","","","","N","N","N","21","2104","21016","2190","2118","21900","2190","2190","1961","","","-4.62800","-43.47100","94","1942.128"
"210040","2100402","ATIVO","9004","707","Altamira do Maranhão","ALTAMIRA DO MARANHAO","","","","S","N","N","21","2102","21008","2190","2117","21900","2190","2190","1961","","","-4.16500","-45.47000","0","668.690"
"210043","2100436","ATIVO","9138","106","Alto Alegre do Maranhão","ALTO ALEGRE DO MARANHAO","","","","S","N","N","21","2104","21015","2190","2105","21900","2190","2190","1997","","","-4.21300","-44.44600","50","420.874"
"210047","2100477","ATIVO","9139","108","Alto Alegre do Pindaré","ALTO ALEGRE DO PINDARE","","","","S","N","N","21","2102","21008","2190","2108","21900","2190","2190","1997","","","-3.69000","-45.90300","0","1932.317"
"210050","2100501","ATIVO","9005","709","Alto Parnaíba","ALTO PARNAIBA","","","","S","N","N","21","2105","21020","2190","2112","21900","2190","2190","1881","","","-9.11100","-45.93000","282","11132.105"
"210055","2100550","ATIVO","9140","110","Amapá do Maranhão","AMAPA DO MARANHAO","","","","S","N","N","21","2102","21007","2190","2109","21900","2190","2190","1997","","","-1.67500","-46.00200","0","442.319"
"210060","2100600","ATIVO","9006","711","Amarante do Maranhão","AMARANTE DO MARANHAO","","","","S","N","N","21","2102","21009","2190","2111","21900","2190","2190","1953","","","-5.56700","-46.74200","249","7669.090"
"210070","2100709","ATIVO","9007","713","Anajatuba","ANAJATUBA","","","","S","N","N","21","2101","21005","2190","2103","21900","2190","2190","1935","","","-3.26400","-44.62000","9","1116.947"
"210080","2100808","ATIVO","9008","715","Anapurus","ANAPURUS","","","","N","N","N","21","2104","21014","2190","2104","21900","2190","2190","1964","","","-3.67200","-43.11600","82","608.274"
"210083","2100832","ATIVO","9141","112","Apicum-Açu","APICUM-ACU","","","","S","N","N","21","2101","21001","2190","2106","21900","2190","2190","1997","","","-1.46100","-45.10300","0","651.915"
"210087","2100873","ATIVO","9142","114","Araguanã","ARAGUANA","","","","S","N","N","21","2102","21008","2190","2109","21900","2190","2190","1997","","","-2.95300","-45.66500","0","804.394"
"210090","2100907","ATIVO","9009","717","Araioses","ARAIOSES","","","","N","N","N","21","2104","21013","2190","2104","21900","2190","2190","1938","","","-2.89000","-41.90300","6","1782.564"
"210095","2100956","ATIVO","9134","1281","Arame","ARAME","","","","S","N","N","21","2103","21011","2190","2116","21900","2190","2190","1988","","","-4.73300","-45.90800","10","3044.801"
"210100","2101004","ATIVO","9010","719","Arari","ARARI","","","","S","N","N","21","2101","21005","2190","2107","21900","2190","2190","1864","","","-3.45400","-44.78000","7","1100.285"
"210110","2101103","ATIVO","9011","721","Axixá","AXIXA","","","","S","N","N","21","2101","21003","2190","2102","21900","2190","2190","1935","","","-2.83700","-44.05300","27","203.194"
"210120","2101202","ATIVO","9012","723","Bacabal","BACABAL","","","","S","N","N","21","2103","21010","2190","2117","21900","2190","2190","1920","","","-4.22500","-44.78000","21","1682.601"
"210125","2101251","ATIVO","9143","116","Bacabeira","BACABEIRA","","","","S","N","N","21","2101","21003","2190","2102","21900","2190","2190","1997","","","-2.97100","-44.31600","44","615.761"
"210130","2101301","ATIVO","9013","725","Bacuri","BACURI","","","","S","N","N","21","2101","21001","2190","2106","21900","2190","2190","1961","","","-1.70300","-45.13400","15","788.062"
"210135","2101350","ATIVO","9144","118","Bacurituba","BACURITUBA","","","","S","N","N","21","2101","21001","2190","2107","21900","2190","2190","1997","","","-2.70600","-44.73800","15","674.512"
"210140","2101400","ATIVO","9014","727","Balsas","BALSAS","","","","S","N","N","21","2105","21020","2190","2112","21900","2190","2190","1892","","","-7.53300","-46.03600","247","13141.637"
"210150","2101509","ATIVO","9015","729","Barão de Grajaú","BARAO DE GRAJAU","","","","N","N","N","21","2104","21018","2190","2113","21900","2190","2190","1911","","","-6.75600","-43.02400","108","2247.229"
"210160","2101608","ATIVO","9016","731","Barra do Corda","BARRA DO CORDA","","","","S","N","N","21","2103","21011","2190","2116","21900","2190","2190","1854","","","-5.50600","-45.24300","83","7962.428"
"210170","2101707","ATIVO","9017","733","Barreirinhas","BARREIRINHAS","",",211707",",2117075","N","N","N","21","2101","21004","2190","2103","21900","2190","2190","1871","","","-2.74700","-42.82600","4","3111.296"
"210173","2101731","ATIVO","9145","120","Belágua","BELAGUA","","","","N","N","N","21","2104","21014","2190","2103","21900","2190","2190","1997","","","-3.15500","-43.51000","92","499.427"
"210177","2101772","ATIVO","9146","122","Bela Vista do Maranhão","BELA VISTA DO MARANHAO","","","","S","N","N","21","2101","21005","2190","2108","21900","2190","2190","1997","","","-3.73100","-45.31500","0","252.524"
"210180","2101806","ATIVO","9018","735","Benedito Leite","BENEDITO LEITE","","","","S","N","N","21","2105","21021","2190","2113","21900","2190","2190","1935","","","-7.22300","-44.55800","173","1781.662"
"210190","2101905","ATIVO","9019","737","Bequimão","BEQUIMAO","","","","S","N","N","21","2101","21001","2190","2106","21900","2190","2190","1935","","","-2.44900","-44.78300","17","768.957"
"210193","2101939","ATIVO","9147","124","Bernardo do Mearim","BERNARDO DO MEARIM","","","","S","N","N","21","2103","21010","2190","2115","21900","2190","2190","1997","","","-4.58400","-44.76400","0","261.401"
"210197","2101970","ATIVO","9148","126","Boa Vista do Gurupi","BOA VISTA DO GURUPI","","","","S","N","N","21","2102","21007","2190","2109","21900","2190","2190","1997","","","-1.78800","-46.30300","0","401.433"
"210200","2102002","ATIVO","9128","955","Bom Jardim","BOM JARDIM","","","","S","N","N","21","2102","21008","2190","2108","21900","2190","2190","1966","","","-3.56500","-45.99400","40","6590.475"
"210203","2102036","ATIVO","9149","128","Bom Jesus das Selvas","BOM JESUS DAS SELVAS","","","","S","N","N","21","2102","21008","2190","2110","21900","2190","2190","1997","","","-4.42000","-46.76500","0","2679.418"
"210207","2102077","ATIVO","9150","130","Bom Lugar","BOM LUGAR","","","","S","N","N","21","2103","21010","2190","2117","21900","2190","2190","1997","","","-4.22000","-45.03900","0","446.444"
