,SUICIDES,MUNCOD,MUNNOME,LATITUDE,LONGITUDE
0,1,110001,Alta Floresta D'Oeste,-11.929,-61.996
1,2,110002,Ariquemes,-9.913,-63.041
2,1,110003,Cabixi,-13.492,-60.545
3,8,110004,Cacoal,-11.438,-61.448
4,1,110005,Cerejeiras,-13.189,-60.812
5,1,110006,Colorado do Oeste,-13.117,-60.542
6,4,110008,Costa Marques,-12.445,-64.227
7,2,110009,Espigão D'Oeste,-11.525,-61.013
8,6,110010,Guajará-Mirim,-10.783,-65.339
9,5,110012,Ji-Paraná,-10.882,-61.944
10,5,110013,Machadinho D'Oeste,-9.444,-61.981
11,3,110015,Ouro Preto do Oeste,-10.716,-62.248
12,4,110018,Pimenta Bueno,-11.673,-61.193
13,39,110020,Porto Velho,-8.762,-63.904
14,2,110025,Presidente Médici,-11.176,-61.901
15,4,110028,Rolim de Moura,-11.733,-61.778
16,10,110030,Vilhena,-12.741,-60.146
17,1,110032,São Miguel do Guaporé,-11.681,-62.684
18,2,110034,Alvorada D'Oeste,-11.408,-62.389
19,2,110037,Alto Alegre dos Parecis,-12.128,-61.851
20,2,110040,Alto Paraíso,-9.713,-63.321
21,1,110045,Buritis,-10.212,-63.829
22,2,110050,Novo Horizonte do Oeste,-11.71,-62.0
23,1,110080,Candeias do Jamari,-8.791,-63.701
24,1,110090,Castanheiras,-11.427,-61.95
25,1,110092,Chupinguaia,-12.552,-60.9
26,2,110100,Governador Jorge Teixeira,-10.61,-62.737
27,2,110130,Mirante da Serra,-11.03,-62.675
28,2,110143,Nova União,-10.904,-62.561
29,1,110145,Parecis,-12.175,-61.603
30,1,110148,São Felipe D'Oeste,-11.903,-61.502
31,2,110149,São Francisco do Guaporé,-12.062,-63.569
32,2,110150,Seringueiras,-11.798,-63.031
33,1,110155,Teixeirópolis,-10.918,-62.249
34,1,110160,Theobroma,-10.244,-62.355
35,1,120010,Brasiléia,-11.01,-68.748
36,6,120020,Cruzeiro do Sul,-7.631,-72.67
37,2,120025,Epitaciolândia,-11.029,-68.741
38,3,120030,Feijó,-8.164,-70.354
39,3,120033,Mâncio Lima,-7.614,-72.896
40,1,120034,Manoel Urbano,-8.839,-69.26
41,5,120035,Marechal Thaumaturgo,-8.941,-72.792
42,1,120038,Plácido de Castro,-10.276,-67.15
43,31,120040,Rio Branco,-9.975,-67.81
44,1,120045,Senador Guiomard,-10.151,-67.736
45,2,120050,Sena Madureira,-9.066,-68.657
46,1,120060,Tarauacá,-8.161,-70.766
47,1,120070,Xapuri,-10.652,-68.504
48,1,120080,Porto Acre,-9.588,-67.533
49,1,130006,Amaturá,-3.364,-68.198
50,1,130008,Anamã,-3.58,-61.404
51,1,130014,Apuí,-7.197,-59.891
52,2,130040,Barcelos,-0.975,-62.924
53,10,130060,Benjamin Constant,-4.383,-70.031
54,2,130068,Boa Vista do Ramos,-2.97,-57.59
55,1,130070,Boca do Acre,-8.752,-67.398
56,2,130083,Caapiranga,-3.328,-61.209
57,3,130100,Carauari,-4.883,-66.896
58,1,130110,Careiro,-3.768,-60.369
59,6,130120,Coari,-4.085,-63.141
60,1,130130,Codajás,-3.837,-62.057
61,8,130140,Eirunepé,-6.66,-69.874
62,7,130150,Envira,-7.433,-70.023
63,2,130170,Humaitá,-7.506,-63.021
64,1,130180,Ipixuna,-7.051,-71.695
65,4,130185,Iranduba,-3.285,-60.186
66,4,130190,Itacoatiara,-3.143,-58.444
67,1,130195,Itamarati,-6.425,-68.253
68,1,130220,Juruá,-3.481,-66.069
69,3,130230,Jutaí,-2.747,-66.767
70,3,130250,Manacapuru,-3.3,-60.621
71,103,130260,Manaus,-3.102,-60.025
72,3,130280,Maraã,-1.856,-65.581
73,1,130290,Maués,-3.384,-57.719
74,1,130300,Nhamundá,-2.186,-56.713
75,1,130310,Nova Olinda do Norte,-3.888,-59.094
76,6,130340,Parintins,-2.628,-56.736
77,1,130350,Pauini,-7.714,-66.976
78,4,130370,Santo Antônio do Içá,-3.102,-67.94
79,10,130380,São Gabriel da Cachoeira,-0.13,-67.089
80,8,130390,São Paulo de Olivença,-3.378,-68.873
81,1,130395,São Sebastião do Uatumã,-2.572,-57.871
82,19,130406,Tabatinga,-4.253,-69.938
83,9,130420,Tefé,-3.354,-64.711
84,1,130426,Uarini,-2.99,-65.108
85,1,130430,Urucará,-2.536,-57.76
86,2,140002,Amajari,3.652,-61.371
87,2,140005,Alto Alegre,2.98,-61.292
88,21,140010,Boa Vista,2.82,-60.673
89,1,140015,Bonfim,3.36,-59.833
90,4,140017,Cantá,2.61,-60.597
91,2,140020,Caracaraí,1.816,-61.128
92,1,140028,Iracema,2.182,-61.041
93,2,140030,Mucajaí,2.43,-60.9
94,1,140060,São Luiz,1.005,-60.159
95,1,140070,Uiramutã,4.596,-60.168
96,4,150010,Abaetetuba,-1.718,-48.883
97,2,150040,Alenquer,-1.942,-54.738
98,3,150050,Almeirim,-1.523,-52.582
99,12,150060,Altamira,-3.203,-52.206
100,3,150070,Anajás,-0.987,-49.94
101,23,150080,Ananindeua,-1.366,-48.372
102,3,150085,Anapu,-3.472,-51.198
103,1,150090,Augusto Corrêa,-1.022,-46.645
104,2,150120,Baião,-2.791,-49.672
105,9,150130,Barcarena,-1.506,-48.626
106,55,150140,Belém,-1.456,-48.504
107,1,150145,Belterra,-2.636,-54.937
108,1,150150,Benevides,-1.361,-48.245
109,4,150170,Bragança,-1.063,-46.773
110,3,150178,Breu Branco,-4.009,-49.461
111,4,150180,Breves,-1.682,-50.48
112,7,150210,Cametá,-2.244,-49.496
113,2,150215,Canaã dos Carajás,-6.497,-49.878
114,1,150220,Capanema,-1.196,-47.181
115,3,150230,Capitão Poço,-1.745,-47.065
116,11,150240,Castanhal,-1.297,-47.922
117,2,150260,Colares,-0.937,-48.282
118,1,150275,Concórdia do Pará,-1.991,-47.949
119,1,150280,Curralinho,-1.814,-49.795
120,2,150285,Curuá,-1.888,-55.117
121,2,150290,Curuçá,-0.734,-47.855
122,1,150293,Dom Eliseu,-4.285,-47.505
123,3,150295,Eldorado dos Carajás,-6.104,-49.355
124,1,150300,Faro,-2.171,-56.745
125,1,150304,Floresta do Araguaia,-7.554,-49.713
126,2,150307,Garrafão do Norte,-1.934,-47.053
127,1,150310,Gurupá,-1.405,-51.64
128,2,150320,Igarapé-Açu,-1.127,-47.618
129,1,150330,Igarapé-Miri,-1.975,-48.96
130,13,150360,Itaituba,-4.276,-55.984
131,2,150370,Itupiranga,-5.135,-49.327
132,2,150375,Jacareacanga,-6.224,-57.754
133,2,150380,Jacundá,-4.451,-49.116
134,1,150390,Juruti,-2.152,-56.092
135,5,150405,Mãe do Rio,-2.06,-47.553
136,13,150420,Marabá,-5.369,-49.118
137,1,150442,Marituba,-1.355,-48.342
138,1,150450,Melgaço,-1.804,-50.712
139,3,150470,Moju,-1.884,-48.769
140,4,150480,Monte Alegre,-2.008,-54.069
141,1,150490,Muaná,-1.528,-49.217
142,2,150495,Nova Esperança do Piriá,-2.269,-46.966
143,3,150503,Novo Progresso,-7.147,-55.382
144,2,150506,Novo Repartimento,-4.331,-49.796
145,1,150510,Óbidos,-1.918,-55.518
146,1,150520,Oeiras do Pará,-2.003,-49.854
147,2,150530,Oriximiná,-1.766,-55.866
148,4,150548,Pacajá,-3.838,-50.638
149,5,150550,Paragominas,-2.995,-47.353
150,17,150553,Parauapebas,-6.068,-49.902
151,1,150555,Pau D'Arco,-7.833,-50.044
152,2,150565,Placas,-3.868,-54.22
153,1,150570,Ponta de Pedras,-1.39,-48.871
154,5,150580,Portel,-1.936,-50.821
155,1,150590,Porto de Moz,-1.748,-52.238
156,5,150600,Prainha,-1.8,-53.48
157,1,150610,Primavera,-0.943,-47.116
158,6,150613,Redenção,-8.029,-50.031
159,2,150616,Rio Maria,-7.311,-50.048
160,2,150618,Rondon do Pará,-4.776,-48.067
161,3,150619,Rurópolis,-4.096,-54.91
162,1,150620,Salinópolis,-0.629,-47.356
163,1,150630,Salvaterra,-0.753,-48.517
164,1,150635,Santa Bárbara do Pará,-1.224,-48.294
165,2,150650,Santa Isabel do Pará,-1.299,-48.161
166,1,150658,Santa Maria das Barreiras,-8.855,-49.722
167,17,150680,Santarém,-2.443,-54.708
168,2,150710,São Caetano de Odivelas,-0.75,-48.02
169,1,150720,São Domingos do Capim,-1.675,-47.775
170,2,150730,São Félix do Xingu,-6.645,-51.995
171,1,150740,São Francisco do Pará,-1.169,-47.795
172,1,150760,São Miguel do Guamá,-1.627,-47.483
173,4,150795,Tailândia,-2.947,-48.953
174,1,150796,Terra Alta,-1.038,-47.908
175,2,150797,Terra Santa,-2.104,-56.487
176,3,150800,Tomé-Açu,-2.419,-48.152
177,1,150805,Trairão,-4.574,-55.944
178,3,150808,Tucumã,-6.748,-51.161
179,5,150810,Tucuruí,-3.768,-49.673
180,1,150812,Ulianópolis,-3.756,-47.501
181,3,150815,Uruará,-3.718,-53.737
182,4,150830,Viseu,-1.197,-46.14
183,3,150840,Xinguara,-7.095,-49.946
184,3,160015,Pedra Branca do Amapari,0.778,-51.944
185,1,160020,Calçoene,2.498,-50.949
186,1,160021,Cutias,0.986,-50.802
187,4,160027,Laranjal do Jari,-0.842,-52.516
188,42,160030,Macapá,0.039,-51.066
189,3,160040,Mazagão,-0.115,-51.289
190,1,160050,Oiapoque,3.843,-51.835
191,2,160053,Porto Grande,0.713,-51.413
192,5,160060,Santana,-0.058,-51.182
193,1,170025,Abreulândia,-9.621,-49.151
194,1,170070,Alvorada,-12.48,-49.125
195,2,170100,Ananás,-6.366,-48.073
196,1,170110,Aparecida do Rio Negro,-9.952,-47.972
197,1,170130,Aragominas,-7.162,-48.528
198,1,170200,Araguaçu,-12.931,-49.826
199,11,170210,Araguaína,-7.191,-48.207
200,5,170220,Araguatins,-5.651,-48.124
201,1,170240,Arraias,-12.931,-46.938
202,2,170255,Augustinópolis,-5.466,-47.888
203,1,170310,Barrolândia,-9.836,-48.725
204,2,170330,Bom Jesus do Tocantins,-8.965,-48.166
205,2,170460,Chapada de Areia,-10.144,-49.14
206,4,170550,Colinas do Tocantins,-8.059,-48.475
207,3,170700,Dianópolis,-11.628,-46.821
208,3,170740,Esperantina,-5.343,-48.511
209,1,170765,Figueirópolis,-12.131,-49.174
210,2,170820,Formoso do Araguaia,-11.797,-49.529
211,3,170930,Guaraí,-8.834,-48.51
212,5,170950,Gurupi,-11.729,-49.069
213,2,171050,Itacajá,-8.392,-47.768
214,1,171190,Lagoa da Confusão,-10.794,-49.624
215,1,171240,Lizarda,-9.594,-46.673
216,1,171320,Miracema do Tocantins,-9.567,-48.392
217,2,171330,Miranorte,-9.529,-48.59
218,5,171420,Natividade,-11.71,-47.723
219,1,171430,Nazaré,-6.372,-47.664
220,3,171488,Nova Olinda,-7.632,-48.423
221,3,171570,Palmeirante,-7.86,-47.926
222,5,171610,Paraíso do Tocantins,-10.176,-48.867
223,1,171650,Pedro Afonso,-8.968,-48.175
224,1,171660,Peixe,-12.025,-48.539
225,1,171665,Pequizeiro,-8.595,-48.934
226,1,171670,Colméia,-8.729,-48.765
227,1,171750,Pium,-10.443,-49.182
228,5,171820,Porto Nacional,-10.708,-48.417
229,1,171830,Praia Norte,-5.393,-47.811
230,1,171880,Sampaio,-5.348,-47.873
231,1,171886,Santa Fé do Araguaia,-7.157,-48.721
232,1,171890,Santa Rosa do Tocantins,-11.449,-48.121
233,1,171900,Santa Tereza do Tocantins,-10.282,-47.808
234,2,172020,São Miguel do Tocantins,-5.555,-47.575
235,1,172049,São Valério da Natividade,-11.975,-48.234
236,1,172080,Sítio Novo do Tocantins,-5.601,-47.638
237,24,172100,Palmas,-10.167,-48.333
238,2,172120,Tocantinópolis,-6.329,-47.416
239,2,172130,Tupiratins,-8.394,-48.116
240,1,172208,Wanderlândia,-6.849,-47.963
241,11,210005,Açailândia,-4.947,-47.505
242,1,210030,Aldeias Altas,-4.628,-43.471
243,1,210043,Alto Alegre do Maranhão,-4.213,-44.446
244,1,210050,Alto Parnaíba,-9.111,-45.93
245,1,210055,Amapá do Maranhão,-1.675,-46.002
246,4,210095,Arame,-4.733,-45.908
247,2,210100,Arari,-3.454,-44.78
248,1,210110,Axixá,-2.837,-44.053
249,8,210120,Bacabal,-4.225,-44.78
250,1,210130,Bacuri,-1.703,-45.134
251,6,210140,Balsas,-7.533,-46.036
252,7,210160,Barra do Corda,-5.506,-45.243
253,2,210170,Barreirinhas,-2.747,-42.826
254,1,210173,Belágua,-3.155,-43.51
255,1,210200,Bom Jardim,-3.565,-45.994
256,2,210203,Bom Jesus das Selvas,-4.42,-46.765
257,1,210210,Brejo,-3.684,-42.75
258,1,210215,Brejo de Areia,-4.334,-45.581
259,2,210220,Buriti,-3.942,-42.925
260,1,210232,Buriticupu,-4.346,-46.401
261,2,210235,Buritirana,-5.593,-47.018
262,1,210255,Campestre do Maranhão,-6.172,-47.364
263,2,210270,Cantanhede,-3.633,-44.377
264,1,210275,Capinzal do Norte,-4.728,-44.327
265,18,210300,Caxias,-4.859,-43.356
266,1,210315,Centro do Guilherme,-2.369,-46.002
267,1,210317,Centro Novo do Maranhão,-2.107,-46.128
268,2,210320,Chapadinha,-3.742,-43.36
269,4,210330,Codó,-4.455,-43.886
270,3,210340,Coelho Neto,-4.257,-43.013
271,3,210350,Colinas,-6.026,-44.249
272,1,210355,Conceição do Lago-Açu,-3.834,-44.893
273,4,210360,Coroatá,-4.13,-44.124
274,4,210370,Cururupu,-1.828,-44.868
275,1,210375,Davinópolis,-5.558,-47.426
276,1,210390,Duque Bacelar,-4.156,-42.944
277,1,210400,Esperantinópolis,-4.883,-44.688
278,4,210405,Estreito,-6.561,-47.451
279,1,210420,Fortuna,-5.733,-44.158
280,2,210455,Governador Edison Lobão,-5.749,-47.361
281,1,210460,Governador Eugênio Barros,-5.323,-44.247
282,1,210462,Governador Luiz Rocha,-5.469,-44.074
283,5,210480,Grajaú,-5.819,-46.139
284,1,210490,Guimarães,-2.133,-44.601
285,1,210500,Humberto de Campos,-2.598,-43.461
286,1,210515,Igarapé do Meio,-3.661,-45.227
287,2,210520,Igarapé Grande,-4.585,-44.853
288,17,210530,Imperatriz,-5.526,-47.476
289,2,210540,Itapecuru Mirim,-3.393,-44.359
290,2,210542,Itinga do Maranhão,-4.45,-47.526
291,1,210550,João Lisboa,-5.448,-47.401
292,1,210560,Joselândia,-4.967,-44.7
293,2,210570,Lago da Pedra,-4.57,-45.132
294,1,210590,Lago Verde,-3.957,-44.822
295,1,210592,Lagoa do Mato,-6.047,-43.526
296,1,210600,Lima Campos,-4.52,-44.467
297,1,210610,Loreto,-7.084,-45.141
298,2,210640,Mata Roma,-3.625,-43.111
299,2,210650,Matinha,-3.101,-45.034
300,3,210660,Matões,-5.519,-43.199
301,1,210663,Matões do Norte,-3.632,-44.556
302,3,210670,Mirador,-6.371,-44.363
303,2,210675,Miranda do Norte,-3.569,-44.584
304,1,210680,Mirinzal,-2.065,-44.784
305,2,210690,Monção,-3.492,-45.251
306,1,210720,Nina Rodrigues,-3.466,-43.905
307,1,210725,Nova Colinas,-7.116,-46.257
308,1,210740,Olho d'Água das Cunhãs,-4.139,-45.12
309,4,210750,Paço do Lumiar,-2.532,-44.108
310,2,210770,Paraibano,-6.433,-43.984
311,1,210780,Parnarama,-5.682,-43.093
312,2,210790,Passagem Franca,-6.18,-43.784
313,1,210845,Peritoró,-4.383,-44.333
314,2,210850,Pindaré-Mirim,-3.608,-45.343
315,6,210860,Pinheiro,-2.521,-45.083
316,1,210880,Pirapemas,-3.727,-44.223
317,1,210890,Poção de Pedras,-4.746,-44.943
318,3,210900,Porto Franco,-6.338,-47.399
319,5,210910,Presidente Dutra,-5.29,-44.49
320,1,210940,Primeira Cruz,-2.51,-43.438
321,5,210950,Riachão,-7.362,-46.617
322,1,210955,Ribamar Fiquene,-5.93,-47.384
323,1,210960,Rosário,-2.934,-44.235
324,1,210975,Santa Filomena do Maranhão,-5.501,-44.561
325,6,211000,Santa Luzia,-4.069,-45.69
326,4,211003,Santa Luzia do Paruá,-2.629,-45.773
327,1,211020,Santa Rita,-3.144,-44.326
328,1,211040,São Benedito do Rio Preto,-3.334,-43.528
329,1,211050,São Bento,-2.696,-44.821
330,1,211060,São Bernardo,-3.361,-42.418
331,2,211070,São Domingos do Maranhão,-5.576,-44.385
332,1,211100,São João Batista,-2.955,-44.807
333,1,211107,São João do Soter,-5.114,-43.81
334,3,211110,São João dos Patos,-6.495,-43.702
335,5,211120,São José de Ribamar,-2.562,-44.054
336,37,211130,São Luís,-2.53,-44.303
337,1,211140,São Luís Gonzaga do Maranhão,-4.38,-44.67
338,1,211150,São Mateus do Maranhão,-4.04,-44.47
339,1,211163,São Raimundo do Doca Bezerra,-5.105,-45.077
340,2,211176,Senador La Rocque,-5.443,-47.291
341,1,211190,Sucupira do Norte,-6.477,-44.192
342,2,211200,Tasso Fragoso,-8.475,-45.743
343,14,211220,Timon,-5.094,-42.837
344,5,211230,Tuntum,-5.258,-44.649
345,2,211240,Turiaçu,-1.663,-45.372
346,1,211250,Tutóia,-2.762,-42.274
347,2,211270,Vargem Grande,-3.543,-43.916
348,2,211280,Viana,-3.22,-45.004
349,2,211285,Vila Nova dos Martírios,-5.188,-48.136
350,1,211290,Vitória do Mearim,-3.462,-44.871
351,2,211300,Vitorino Freire,-4.282,-45.251
352,2,211400,Zé Doca,-3.243,-45.824
353,1,220010,Agricolândia,-5.799,-42.669
354,3,220020,Água Branca,-5.89,-42.638
355,2,220025,Alagoinha do Piauí,-7.008,-40.939
356,3,220030,Alto Longá,-5.251,-42.21
357,5,220040,Altos,-5.039,-42.461
358,2,220050,Amarante,-6.241,-42.855
359,1,220090,Aroazes,-6.119,-41.793
360,1,220095,Aroeiras do Itaim,,
361,1,220105,Assunção do Piauí,-5.864,-41.049
362,1,220120,Barras,-4.247,-42.296
363,1,220130,Barreiras do Piauí,-9.925,-45.475
364,1,220140,Barro Duro,-5.818,-42.513
365,3,220150,Batalha,-4.024,-42.078
366,1,220155,Bela Vista do Piauí,-7.989,-41.868
367,1,220160,Beneditinos,-5.455,-42.36
368,1,220173,Betânia do Piauí,-8.148,-40.796
369,1,220177,Boa Hora,-4.411,-42.086
370,4,220190,Bom Jesus,-9.074,-44.359
371,1,220200,Buriti dos Lopes,-3.175,-41.867
372,1,220209,Caldeirão Grande do Piauí,-7.332,-40.637
373,1,220211,Campo Alegre do Fidalgo,-8.376,-41.836
374,1,220213,Campo Grande do Piauí,-7.132,-41.036
375,8,220220,Campo Maior,-4.828,-42.169
376,1,220230,Canto do Buriti,-8.11,-42.944
377,3,220240,Capitão de Campos,-4.457,-41.944
378,1,220255,Caridade do Piauí,-7.733,-40.99
379,1,220260,Castelo do Piauí,-5.322,-41.553
380,1,220270,Cocal,-3.471,-41.555
381,1,220275,Colônia do Gurguéia,-8.182,-43.792
382,2,220280,Conceição do Canindé,-7.878,-41.597
383,1,220290,Corrente,-10.443,-45.162
384,2,220300,Cristalândia do Piauí,-10.653,-45.185
385,3,220320,Curimatá,-10.036,-44.306
386,1,220327,Curral Novo do Piauí,-7.832,-40.901
387,2,220330,Demerval Lobão,-5.358,-42.676
388,1,220345,Dom Inocêncio,-9.002,-41.974
389,2,220370,Esperantina,-3.902,-42.234
390,1,220385,Floresta do Piauí,-7.469,-41.794
391,3,220390,Floriano,-6.767,-43.023
392,1,220400,Francinópolis,-6.396,-42.262
393,1,220430,Fronteiras,-7.088,-40.616
394,3,220450,Guadalupe,-6.787,-43.569
395,1,220470,Inhuma,-6.668,-41.708
396,1,220480,Ipiranga do Piauí,-6.828,-41.741
397,2,220490,Isaías Coelho,-7.738,-41.676
398,2,220500,Itainópolis,-7.447,-41.478
399,3,220510,Itaueira,-7.603,-43.026
400,2,220515,Jacobina do Piauí,-7.935,-41.21
401,1,220520,Jaicós,-7.359,-41.138
402,1,220545,Joca Marques,-3.478,-42.428
403,4,220550,José de Freitas,-4.756,-42.576
404,1,220553,Jurema,-9.231,-43.128
405,2,220554,Lagoinha do Piauí,-5.831,-42.623
406,1,220558,Lagoa do Piauí,-5.415,-42.643
407,2,220570,Luís Correia,-2.879,-41.667
408,1,220580,Luzilândia,-3.458,-42.37
409,1,220585,Madeiro,-3.483,-42.504
410,1,220610,Matias Olímpio,-3.716,-42.556
411,2,220650,Monsenhor Hipólito,-6.996,-41.03
412,2,220660,Monte Alegre do Piauí,-9.754,-45.304
413,2,220667,Morro do Chapéu do Piauí,-3.743,-42.312
414,1,220695,Novo Santo Antônio,-5.288,-41.933
415,6,220700,Oeiras,-7.025,-42.131
416,1,220730,Paes Landim,-7.778,-42.256
417,2,220750,Palmeirais,-5.978,-43.063
418,1,220755,Paquetá,-7.104,-41.704
419,20,220770,Parnaíba,-2.905,-41.777
420,1,220779,Pau D'Arco do Piauí,-5.276,-42.405
421,3,220780,Paulistana,-8.144,-41.15
422,5,220790,Pedro II,-4.425,-41.459
423,2,220795,Nova Santa Rita,-8.087,-42.052
424,13,220800,Picos,-7.077,-41.467
425,2,220820,Pio IX,-6.838,-40.579
426,5,220830,Piracuruca,-3.928,-41.709
427,5,220840,Piripiri,-4.273,-41.777
428,1,220850,Porto,-3.893,-42.71
429,1,220865,Queimada Nova,-8.579,-41.419
430,2,220870,Redenção do Gurguéia,-9.487,-44.586
431,4,220880,Regeneração,-6.238,-42.688
432,1,220890,Ribeiro Gonçalves,-7.558,-45.242
433,1,220900,Rio Grande do Piauí,-7.775,-43.142
434,4,220910,Santa Cruz do Piauí,-7.185,-41.768
435,1,220915,Santa Cruz dos Milagres,-5.804,-41.956
436,1,220935,Santana do Piauí,-6.948,-41.519
437,1,220950,Santo Inácio do Piauí,-7.43,-41.911
438,1,220960,São Félix do Piauí,-5.933,-42.114
439,2,220965,São Francisco de Assis do Piauí,-8.238,-41.686
440,1,220980,São Gonçalo do Piauí,-5.993,-42.703
441,1,220987,São João da Fronteira,-3.956,-41.258
442,1,220990,São João da Serra,-5.514,-41.899
443,7,221000,São João do Piauí,-8.358,-42.247
444,2,221010,São José do Peixe,-7.494,-42.564
445,4,221020,São José do Piauí,-6.872,-41.475
446,2,221050,São Pedro do Piauí,-5.929,-42.719
447,10,221060,São Raimundo Nonato,-9.015,-42.699
448,1,221070,Simões,-7.599,-40.818
449,3,221080,Simplício Mendes,-7.854,-41.91
450,3,221093,Sussuapara,-7.043,-41.384
451,2,221095,Tamboril do Piauí,-8.4,-42.914
452,85,221100,Teresina,-5.089,-42.802
453,1,221110,União,-4.586,-42.864
454,5,221120,Uruçuí,-7.229,-44.556
455,2,221130,Valença do Piauí,-6.408,-41.746
456,1,221135,Várzea Branca,-9.239,-42.964
457,1,221140,Várzea Grande,-6.545,-42.246
458,1,221160,Vila Nova do Piauí,-7.136,-40.94
459,1,221170,Wall Ferraz,-7.233,-41.91
460,1,230010,Abaiara,-7.359,-39.046
461,2,230015,Acarape,-4.224,-38.708
462,5,230020,Acaraú,-2.886,-40.12
463,9,230030,Acopiara,-6.095,-39.453
464,1,230040,Aiuaba,-6.574,-40.124
465,3,230050,Alcântaras,-3.589,-40.546
466,2,230060,Altaneira,-7.002,-39.741
467,2,230075,Amontada,-3.361,-39.831
468,1,230080,Antonina do Norte,-6.775,-39.989
469,5,230090,Apuiarés,-3.949,-39.432
470,4,230100,Aquiraz,-3.901,-38.391
471,1,230110,Aracati,-4.562,-37.77
472,2,230120,Aracoiaba,-4.371,-38.814
473,2,230125,Ararendá,-4.753,-40.833
474,1,230130,Araripe,-7.213,-40.046
475,1,230150,Arneiroz,-6.324,-40.161
476,4,230160,Assaré,-6.874,-39.875
477,3,230170,Aurora,-6.943,-38.968
478,1,230185,Banabuiú,-5.31,-38.921
479,6,230190,Barbalha,-7.305,-39.302
480,2,230195,Barreira,-4.287,-38.643
481,3,230200,Barro,-7.177,-38.782
482,1,230205,Barroquinha,-3.019,-41.137
483,5,230210,Baturité,-4.329,-38.885
484,3,230220,Beberibe,-4.18,-38.131
485,2,230230,Bela Cruz,-3.051,-40.168
486,3,230240,Boa Viagem,-5.128,-39.732
487,5,230250,Brejo Santo,-7.493,-38.985
488,5,230260,Camocim,-2.902,-40.841
489,2,230270,Campos Sales,-7.074,-40.376
490,11,230280,Canindé,-4.359,-39.312
491,1,230300,Caridade,-4.232,-39.193
492,1,230310,Cariré,-3.951,-40.473
493,4,230320,Caririaçu,-7.042,-39.284
494,5,230330,Cariús,-6.537,-39.497
495,3,230340,Carnaubal,-4.167,-40.943
496,2,230350,Cascavel,-4.131,-38.236
497,3,230360,Catarina,-6.131,-39.878
498,1,230365,Catunda,-4.648,-40.201
499,10,230370,Caucaia,-3.733,-38.656
500,3,230380,Cedro,-6.607,-39.062
501,3,230390,Chaval,-3.034,-41.244
502,1,230393,Choró,-4.843,-39.141
503,3,230395,Chorozinho,-4.3,-38.497
504,6,230410,Crateús,-5.178,-40.678
505,11,230420,Crato,-7.234,-39.409
506,1,230423,Croatá,-4.4,-40.911
507,1,230425,Cruz,-2.918,-40.172
508,2,230426,Deputado Irapuan Pinheiro,-5.917,-39.268
509,5,230428,Eusébio,-3.89,-38.451
510,2,230430,Farias Brito,-6.931,-39.566
511,4,230435,Forquilha,-3.798,-40.261
512,167,230440,Fortaleza,-3.717,-38.543
513,1,230445,Fortim,-4.452,-37.797
514,7,230470,Granja,-3.12,-40.826
515,1,230490,Groaíras,-3.913,-40.383
516,1,230495,Guaiúba,-4.04,-38.637
517,7,230500,Guaraciaba do Norte,-4.167,-40.748
518,1,230526,Ibaretama,-4.804,-38.753
519,2,230530,Ibiapina,-3.923,-40.889
520,3,230540,Icó,-6.401,-38.862
521,12,230550,Iguatu,-6.359,-39.299
522,4,230560,Independência,-5.396,-40.309
523,2,230565,Ipaporanga,-4.9,-40.759
524,2,230570,Ipaumirim,-6.79,-38.719
525,2,230580,Ipu,-4.322,-40.711
526,4,230590,Ipueiras,-4.542,-40.719
527,4,230600,Iracema,-5.812,-38.306
528,1,230610,Irauçuba,-3.746,-39.783
529,1,230625,Itaitinga,-3.969,-38.528
530,1,230630,Itapagé,-3.687,-39.586
531,7,230640,Itapipoca,-3.494,-39.579
532,1,230650,Itapiúna,-4.564,-38.922
533,1,230655,Itarema,-2.92,-39.915
534,3,230660,Itatira,-4.529,-39.622
535,1,230670,Jaguaretama,-5.613,-38.767
536,1,230680,Jaguaribara,-5.658,-38.62
537,4,230690,Jaguaribe,-5.891,-38.622
538,3,230700,Jaguaruana,-4.834,-37.781
539,3,230710,Jardim,-7.582,-39.298
540,1,230725,Jijoca de Jericoacoara,-2.794,-40.513
541,21,230730,Juazeiro do Norte,-7.213,-39.315
542,2,230740,Jucás,-6.525,-39.528
543,5,230750,Lavras da Mangabeira,-6.753,-38.972
544,1,230760,Limoeiro do Norte,-5.146,-38.098
545,4,230763,Madalena,-4.857,-39.577
546,13,230765,Maracanaú,-3.877,-38.626
547,5,230770,Maranguape,-3.89,-38.686
548,2,230800,Massapê,-3.523,-40.343
549,2,230810,Mauriti,-7.389,-38.774
550,2,230820,Meruoca,-3.542,-40.455
551,3,230830,Milagres,-7.313,-38.946
552,2,230840,Missão Velha,-7.25,-39.143
553,10,230850,Mombaça,-5.743,-39.628
554,3,230860,Monsenhor Tabosa,-4.789,-40.063
555,4,230870,Morada Nova,-5.107,-38.373
556,2,230890,Morrinhos,-3.229,-40.125
557,1,230900,Mucambo,-3.909,-40.747
558,3,230920,Nova Olinda,-7.092,-39.681
559,2,230930,Nova Russas,-4.707,-40.563
560,4,230940,Novo Oriente,-5.534,-40.774
561,2,230945,Ocara,-4.491,-38.597
562,1,230950,Orós,-6.244,-38.914
563,3,230960,Pacajus,-4.173,-38.461
564,2,230970,Pacatuba,-3.984,-38.62
565,1,230980,Pacoti,-4.225,-38.923
566,1,231010,Palmácia,-4.15,-38.846
567,5,231020,Paracuru,-3.41,-39.031
568,1,231030,Parambu,-6.211,-40.694
569,1,231040,Paramoti,-4.097,-39.239
570,1,231050,Pedra Branca,-5.454,-39.717
571,4,231070,Pentecoste,-3.793,-39.27
572,1,231080,Pereiro,-6.045,-38.461
573,2,231085,Pindoretama,-4.028,-38.306
574,2,231090,Piquet Carneiro,-5.804,-39.418
575,2,231100,Poranga,-4.745,-40.926
576,2,231110,Porteiras,-7.535,-39.118
577,3,231120,Potengi,-7.091,-40.027
578,2,231126,Quiterianópolis,-5.843,-40.701
579,7,231130,Quixadá,-4.971,-39.015
580,2,231135,Quixelô,-6.254,-39.202
581,5,231140,Quixeramobim,-5.199,-39.293
582,1,231160,Redenção,-4.226,-38.731
583,1,231170,Reriutaba,-4.142,-40.582
584,4,231180,Russas,-4.94,-37.976
585,2,231195,Salitre,-7.285,-40.457
586,3,231200,Santana do Acaraú,-3.461,-40.212
587,3,231210,Santana do Cariri,-7.188,-39.737
588,6,231220,Santa Quitéria,-4.332,-40.157
589,4,231230,São Benedito,-4.049,-40.865
590,3,231240,São Gonçalo do Amarante,-3.606,-38.969
591,1,231260,São Luís do Curu,-3.67,-39.243
592,4,231270,Senador Pompeu,-5.588,-39.372
593,2,231280,Senador Sá,-3.351,-40.463
594,16,231290,Sobral,-3.674,-40.239
595,2,231320,Tamboril,-4.832,-40.321
596,7,231330,Tauá,-6.003,-40.293
597,2,231335,Tejuçuoca,-3.989,-39.581
598,8,231340,Tianguá,-3.732,-40.992
599,4,231350,Trairi,-3.278,-39.269
600,1,231355,Tururu,-3.581,-39.437
601,3,231360,Ubajara,-3.854,-40.921
602,1,231370,Umari,-6.648,-38.7
603,4,231375,Umirim,-3.677,-39.35
604,2,231380,Uruburetama,-3.625,-39.508
605,1,231390,Uruoca,-3.314,-40.557
606,3,231395,Varjota,-4.194,-40.477
607,2,231400,Várzea Alegre,-6.789,-39.296
608,6,231410,Viçosa do Ceará,-3.562,-41.092
609,1,240010,Acari,-6.436,-36.639
610,5,240020,Açu,-5.577,-36.909
611,1,240050,Alexandria,-6.413,-38.016
612,1,240060,Almino Afonso,-6.152,-37.766
613,3,240100,Apodi,-5.664,-37.799
614,1,240110,Areia Branca,-4.956,-37.137
615,3,240120,Arês,-6.194,-35.16
616,2,240130,Augusto Severo,-5.864,-37.31
617,1,240140,Baía Formosa,-6.369,-35.008
618,1,240145,Baraúna,-5.08,-37.617
619,1,240165,Bodó,-5.988,-36.413
620,1,240170,Bom Jesus,-5.984,-35.581
621,1,240180,Brejinho,-6.191,-35.357
622,8,240200,Caicó,-6.458,-37.098
623,2,240220,Canguaretama,-6.38,-35.129
624,1,240240,Carnaúba dos Dantas,-6.556,-36.595
625,4,240260,Ceará-Mirim,-5.634,-35.426
626,3,240270,Cerro Corá,-6.046,-36.346
627,1,240280,Coronel Ezequiel,-6.383,-36.215
628,1,240290,Coronel João Pessoa,-6.26,-38.444
629,5,240310,Currais Novos,-6.261,-36.515
630,1,240320,Doutor Severiano,-6.094,-38.375
631,11,240325,Parnamirim,-5.916,-35.263
632,1,240330,Encanto,-6.111,-38.306
633,2,240360,Extremoz,-5.706,-35.307
634,1,240380,Florânia,-6.127,-36.818
635,2,240420,Goianinha,-6.267,-35.21
636,1,240485,Itajá,-5.644,-36.871
637,1,240490,Itaú,-5.84,-37.993
638,1,240540,Japi,-6.465,-35.947
639,1,240560,Jardim de Piranhas,-6.379,-37.352
640,4,240570,Jardim do Seridó,-6.584,-36.774
641,2,240580,João Câmara,-5.538,-35.82
642,1,240600,José da Penha,-6.317,-38.281
643,4,240610,Jucurutu,-6.034,-37.02
644,1,240620,Lagoa d'Anta,-6.391,-35.598
645,1,240630,Lagoa de Pedras,-6.149,-35.438
646,1,240650,Lagoa Nova,-6.096,-36.469
647,1,240670,Lajes,-5.7,-36.245
648,2,240710,Macaíba,-5.858,-35.354
649,2,240720,Macau,-5.115,-36.634
650,1,240730,Marcelino Vieira,-6.294,-38.167
651,2,240750,Maxaranguape,-5.516,-35.262
652,1,240780,Monte Alegre,-6.068,-35.332
653,18,240800,Mossoró,-5.188,-37.344
654,37,240810,Natal,-5.795,-35.209
655,1,240820,Nísia Floresta,-6.091,-35.209
656,1,240840,Olho-d'Água do Borges,-5.956,-37.706
657,6,240890,Parelhas,-6.688,-36.658
658,4,240930,Patu,-6.11,-37.637
659,3,240940,Pau dos Ferros,-6.111,-38.209
660,1,240990,Pendências,-5.26,-36.722
661,4,241010,Poço Branco,-5.623,-35.663
662,1,241100,Rodolfo Fernandes,-5.788,-38.06
663,5,241120,Santa Cruz,-6.229,-36.023
664,1,241140,Santana do Matos,-5.958,-36.656
665,1,241170,São Bento do Trairí,-6.342,-36.087
666,4,241200,São Gonçalo do Amarante,-5.793,-35.329
667,3,241210,São João do Sabugi,-6.718,-37.201
668,2,241220,São José de Mipibu,-6.075,-35.238
669,1,241230,São José do Campestre,-6.316,-35.714
670,3,241250,São Miguel,-6.212,-38.497
671,1,241280,São Rafael,-5.799,-36.921
672,1,241310,Senador Elói de Souza,-6.036,-35.693
673,1,241330,Serra de São Bento,-6.417,-35.704
674,1,241360,Severiano Melo,-5.777,-37.958
675,1,241410,Tenente Ananias,-6.465,-38.18
676,1,241420,Tibau do Sul,-6.187,-35.092
677,1,241445,Triunfo Potiguar,-5.867,-37.189
678,1,241450,Umarizal,-5.991,-37.814
679,2,250010,Água Branca,-7.512,-37.641
680,1,250020,Aguiar,-7.092,-38.171
681,1,250030,Alagoa Grande,-7.089,-35.635
682,2,250070,São João do Rio do Peixe,-6.729,-38.449
683,1,250077,Aparecida,-6.784,-38.087
684,1,250080,Araçagi,-6.853,-35.381
685,1,250110,Areia,-6.963,-35.692
686,1,250130,Aroeiras,-7.545,-35.708
687,1,250153,Baraúna,-6.643,-36.254
688,1,250160,Barra de Santa Rosa,-6.72,-36.061
689,1,250170,Barra de São Miguel,-7.751,-36.318
690,3,250180,Bayeux,-7.125,-34.932
691,1,250215,Boa Vista,-7.259,-36.24
692,1,250220,Bom Jesus,-6.817,-38.65
693,1,250230,Bom Sucesso,-6.445,-37.929
694,2,250240,Bonito de Santa Fé,-7.313,-38.515
695,1,250250,Boqueirão,-7.482,-36.135
696,2,250300,Caaporã,-7.516,-34.908
697,3,250320,Cabedelo,-6.981,-34.834
698,8,250370,Cajazeiras,-6.89,-38.562
699,26,250400,Campina Grande,-7.231,-35.881
700,1,250410,Carrapateira,-7.039,-38.344
701,1,250430,Catolé do Rocha,-6.344,-37.747
702,1,250440,Conceição,-7.562,-38.509
703,1,250470,Congo,-7.797,-36.66
704,1,250480,Coremas,-7.014,-37.946
705,2,250500,Cubati,-6.868,-36.351
706,2,250510,Cuité,-6.485,-36.157
707,1,250527,Curral de Cima,-6.717,-35.269
708,2,250560,Diamante,-7.428,-38.264
709,1,250570,Dona Inês,-6.618,-35.632
710,4,250600,Esperança,-7.023,-35.86
711,1,250625,Gado Bravo,-7.583,-35.791
712,8,250630,Guarabira,-6.855,-35.49
713,1,250640,Gurinhém,-7.124,-35.424
714,2,250670,Imaculada,-7.39,-37.509
715,1,250680,Ingá,-7.268,-35.613
716,1,250690,Itabaiana,-7.329,-35.333
717,3,250700,Itaporanga,-7.304,-38.15
718,1,250740,Jericó,-6.554,-37.809
719,41,250750,João Pessoa,-7.115,-34.863
720,1,250800,Juru,-7.537,-37.819
721,1,250830,Lagoa Seca,-7.171,-35.854
722,1,250855,Logradouro,-6.614,-35.443
723,2,250870,Mãe d'Água,-7.259,-37.427
724,1,250880,Malta,-6.904,-37.522
725,1,250905,Marcação,-6.77,-35.015
726,2,250910,Mari,-7.06,-35.319
727,1,250920,Massaranduba,-7.2,-35.789
728,5,250970,Monteiro,-7.889,-37.12
729,1,251010,Nova Floresta,-6.455,-36.203
730,4,251020,Nova Olinda,-7.48,-38.042
731,1,251040,Olho d'Água,-7.228,-37.751
732,9,251080,Patos,-7.024,-37.28
733,1,251090,Paulista,-6.594,-37.624
734,1,251120,Pedras de Fogo,-7.402,-35.116
735,5,251130,Piancó,-7.198,-37.929
736,1,251140,Picuí,-6.555,-36.349
737,1,251160,Pilões,-6.902,-35.623
738,1,251170,Pilõezinhos,-6.844,-35.531
739,2,251190,Pitimbu,-7.471,-34.809
740,1,251210,Pombal,-6.77,-37.802
741,3,251230,Princesa Isabel,-7.737,-37.993
742,5,251250,Queimadas,-7.358,-35.898
743,1,251270,Remígio,-6.903,-35.834
744,1,251280,Riacho dos Cavalos,-6.443,-37.651
745,1,251330,Santa Helena,-6.72,-38.638
746,1,251340,Santa Luzia,-6.872,-36.919
747,1,251360,Santana dos Garrotes,-7.384,-37.986
748,6,251370,Santa Rita,-7.114,-34.978
749,1,251380,Santa Teresinha,-7.116,-37.452
750,1,251385,Santo André,-7.218,-36.633
751,5,251390,São Bento,-6.486,-37.451
752,1,251392,São Bentinho,-6.901,-37.729
753,1,251400,São João do Cariri,-7.391,-36.533
754,1,251450,São José de Piranhas,-7.121,-38.502
755,1,251455,São José de Princesa,-7.738,-38.094
756,1,251470,São José do Sabugi,-6.776,-36.799
757,2,251490,São Mamede,-6.927,-37.096
758,1,251510,São Sebastião de Lagoa de Roça,-7.083,-35.835
759,1,251520,São Sebastião do Umbuzeiro,-8.152,-37.01
760,3,251530,Sapé,-7.095,-35.233
761,4,251610,Soledade,-7.057,-36.363
762,7,251620,Sousa,-6.761,-38.231
763,2,251630,Sumé,-7.672,-36.88
764,2,251650,Taperoá,-7.207,-36.827
765,1,251660,Tavares,-7.636,-37.878
766,1,251670,Teixeira,-7.223,-37.254
767,1,251710,Várzea,-6.772,-36.992
768,4,260005,Abreu e Lima,-7.912,-34.903
769,1,260010,Afogados da Ingazeira,-7.751,-37.639
770,2,260020,Afrânio,-8.515,-41.005
771,1,260030,Agrestina,-8.458,-35.945
772,1,260040,Água Preta,-8.707,-35.531
773,1,260050,Águas Belas,-9.111,-37.123
774,1,260070,Aliança,-7.603,-35.231
775,1,260080,Altinho,-8.49,-36.059
776,3,260110,Araripina,-7.576,-40.498
777,6,260120,Arcoverde,-8.419,-37.054
778,1,260130,Barra de Guabiraba,-8.42,-35.658
779,2,260160,Belém de São Francisco,-8.758,-38.964
780,3,260170,Belo Jardim,-8.336,-36.424
781,4,260190,Bezerros,-8.233,-35.797
782,2,260200,Bodocó,-7.778,-39.941
783,5,260210,Bom Conselho,-9.17,-36.68
784,1,260230,Bonito,-8.47,-35.729
785,1,260240,Brejão,-9.03,-36.569
786,1,260260,Brejo da Madre de Deus,-8.146,-36.371
787,1,260270,Buenos Aires,-7.726,-35.327
788,4,260280,Buíque,-8.623,-37.156
789,4,260290,Cabo de Santo Agostinho,-8.287,-35.035
790,3,260300,Cabrobó,-8.512,-39.307
791,1,260340,Calumbi,-7.941,-38.15
792,3,260345,Camaragibe,-8.022,-34.981
793,1,260360,Camutanga,-7.407,-35.274
794,1,260370,Canhotinho,-8.882,-36.191
795,2,260390,Carnaíba,-7.805,-37.794
796,1,260400,Carpina,-7.851,-35.255
797,16,260410,Caruaru,-8.283,-35.976
798,1,260415,Casinhas,-7.741,-35.721
799,1,260430,Cedro,-7.722,-39.239
800,1,260440,Chã de Alegria,-8.001,-35.213
801,1,260450,Chã Grande,-8.238,-35.462
802,1,260460,Condado,-7.586,-35.106
803,3,260490,Cumaru,-8.006,-35.697
804,3,260510,Custódia,-8.088,-37.643
805,3,260520,Escada,-8.359,-35.224
806,5,260530,Exu,-7.512,-39.724
807,2,260540,Feira Nova,-7.951,-35.389
808,3,260560,Flores,-7.866,-37.975
809,2,260570,Floresta,-8.601,-38.568
810,1,260580,Frei Miguelinho,-7.94,-35.912
811,1,260590,Gameleira,-8.584,-35.387
812,7,260600,Garanhuns,-8.89,-36.493
813,1,260610,Glória do Goitá,-8.002,-35.293
814,2,260620,Goiana,-7.561,-35.003
815,1,260630,Granito,-7.716,-39.615
816,5,260640,Gravatá,-8.201,-35.565
817,4,260650,Iati,-9.046,-36.846
818,2,260660,Ibimirim,-8.541,-37.69
819,5,260680,Igarassu,-7.834,-34.906
820,1,260690,Iguaraci,-7.835,-37.515
821,1,260700,Inajá,-8.903,-37.827
822,1,260720,Ipojuca,-8.399,-35.064
823,3,260730,Ipubi,-7.652,-40.149
824,2,260750,Itaíba,-8.948,-37.423
825,1,260760,Ilha de Itamaracá,-7.748,-34.826
826,1,260765,Itambé,-7.41,-35.113
827,1,260770,Itapetim,-7.378,-37.19
828,1,260780,Itaquitinga,-7.668,-35.102
829,21,260790,Jaboatão dos Guararapes,-8.113,-35.015
830,1,260800,Jataúba,-7.99,-36.496
831,2,260810,João Alfredo,-7.856,-35.588
832,1,260825,Jucati,-8.706,-36.489
833,1,260840,Jurema,-8.718,-36.136
834,3,260850,Lagoa do Itaenga,-7.936,-35.29
835,1,260860,Lagoa do Ouro,-9.127,-36.459
836,1,260870,Lagoa dos Gatos,-8.658,-35.9
837,3,260875,Lagoa Grande,-8.997,-40.272
838,2,260880,Lajedo,-8.664,-36.32
839,4,260890,Limoeiro,-7.875,-35.45
840,2,260915,Manari,-8.964,-37.628
841,1,260920,Maraial,-8.803,-35.829
842,3,260930,Mirandiba,-8.119,-38.728
843,2,260940,Moreno,-8.119,-35.092
844,14,260960,Olinda,-8.009,-34.855
845,2,260970,Orobó,-7.745,-35.602
846,5,260990,Ouricuri,-7.883,-40.082
847,1,261000,Palmares,-8.683,-35.592
848,1,261010,Palmeirina,-9.004,-36.326
849,2,261020,Panelas,-8.664,-36.006
850,1,261050,Passira,-7.995,-35.581
851,2,261060,Paudalho,-7.897,-35.18
852,10,261070,Paulista,-7.941,-34.873
853,1,261080,Pedra,-8.497,-36.941
854,4,261090,Pesqueira,-8.358,-36.696
855,23,261110,Petrolina,-9.393,-40.508
856,1,261120,Poção,-8.186,-36.705
857,2,261130,Pombos,-8.141,-35.396
858,1,261140,Primavera,-8.331,-35.354
859,1,261150,Quipapá,-8.828,-36.012
860,1,261153,Quixaba,-7.72,-37.848
861,77,261160,Recife,-8.054,-34.881
862,1,261210,Salgadinho,-7.936,-35.633
863,2,261220,Salgueiro,-8.067,-39.12
864,1,261230,Saloá,-8.976,-36.688
865,2,261240,Sanharó,-8.361,-36.566
866,1,261245,Santa Cruz,-8.24,-40.336
867,4,261247,Santa Cruz da Baixa Verde,-7.821,-38.153
868,5,261250,Santa Cruz do Capibaribe,-7.957,-36.205
869,2,261255,Santa Filomena,-8.163,-40.616
870,2,261260,Santa Maria da Boa Vista,-8.809,-39.825
871,1,261270,Santa Maria do Cambucá,-7.84,-35.902
872,8,261300,São Bento do Una,-8.523,-36.444
873,1,261310,São Caitano,-8.326,-36.143
874,3,261320,São João,-8.876,-36.367
875,3,261330,São Joaquim do Monte,-8.432,-35.804
876,2,261350,São José do Belmonte,-7.861,-38.76
877,1,261360,São José do Egito,-7.479,-37.274
878,4,261370,São Lourenço da Mata,-8.002,-35.018
879,1,261380,São Vicente Ferrer,-7.591,-35.491
880,2,261390,Serra Talhada,-7.986,-38.296
881,2,261410,Sertânia,-8.074,-37.264
882,1,261420,Sirinhaém,-8.591,-35.116
883,3,261450,Surubim,-7.832,-35.756
884,3,261460,Tabira,-7.591,-37.539
885,1,261470,Tacaimbó,-8.316,-36.293
886,1,261500,Taquaritinga do Norte,-7.903,-36.044
887,1,261510,Terezinha,-9.056,-36.623
888,2,261520,Terra Nova,-8.23,-39.376
889,8,261530,Timbaúba,-7.505,-35.318
890,4,261540,Toritama,-7.999,-36.051
891,1,261560,Trindade,-7.762,-40.268
892,1,261570,Triunfo,-7.838,-38.102
893,1,261580,Tupanatinga,-8.753,-37.34
894,1,261610,Verdejante,-7.926,-38.972
895,1,261630,Vicência,-7.657,-35.327
896,9,261640,Vitória de Santo Antão,-8.118,-35.291
897,2,270020,Anadia,-9.684,-36.304
898,11,270030,Arapiraca,-9.752,-36.661
899,1,270070,Batalha,-9.678,-37.125
900,1,270100,Boca da Mata,-9.641,-36.22
901,1,270110,Branquinha,-9.246,-36.015
902,1,270120,Cacimbinhas,-9.4,-36.99
903,2,270130,Cajueiro,-9.397,-36.154
904,1,270190,Chã Preta,-9.255,-36.296
905,2,270200,Coité do Nóia,-9.632,-36.579
906,2,270230,Coruripe,-10.126,-36.176
907,4,270240,Delmiro Gouveia,-9.386,-37.996
908,2,270250,Dois Riachos,-9.393,-37.101
909,1,270255,Estrela de Alagoas,-9.39,-36.76
910,1,270280,Flexeiras,-9.273,-35.715
911,4,270290,Girau do Ponciano,-9.884,-36.829
912,1,270300,Ibateguara,-8.973,-35.939
913,2,270310,Igaci,-9.537,-36.634
914,1,270320,Igreja Nova,-10.125,-36.662
915,1,270380,Joaquim Gomes,-9.133,-35.748
916,2,270400,Junqueiro,-9.925,-36.476
917,2,270410,Lagoa da Canoa,-9.83,-36.738
918,36,270430,Maceió,-9.666,-35.735
919,2,270440,Major Isidoro,-9.532,-36.985
920,2,270450,Maragogi,-9.012,-35.222
921,3,270460,Maravilha,-9.236,-37.35
922,1,270470,Marechal Deodoro,-9.71,-35.895
923,1,270480,Maribondo,-9.577,-36.305
924,1,270500,Mata Grande,-9.118,-37.734
925,1,270520,Messias,-9.383,-35.842
926,1,270550,Murici,-9.307,-35.943
927,1,270570,Olho d'Água das Flores,-9.536,-37.294
928,1,270580,Olho d'Água do Casado,-9.501,-37.832
929,1,270590,Olho d'Água Grande,-10.058,-36.817
930,5,270630,Palmeira dos Índios,-9.407,-36.628
931,1,270640,Pão de Açúcar,-9.748,-37.437
932,1,270670,Penedo,-10.29,-36.586
933,1,270690,Pilar,-9.597,-35.957
934,1,270710,Piranhas,-9.624,-37.757
935,1,270720,Poço das Trincheiras,-9.313,-37.286
936,2,270730,Porto Calvo,-9.045,-35.398
937,2,270750,Porto Real do Colégio,-10.186,-36.84
938,1,270770,Rio Largo,-9.478,-35.853
939,3,270800,Santana do Ipanema,-9.378,-37.245
940,1,270820,São Brás,-10.128,-36.901
941,1,270830,São José da Laje,-9.01,-36.058
942,4,270840,São José da Tapera,-9.558,-37.381
943,2,270860,São Miguel dos Campos,-9.781,-36.094
944,1,270900,Tanque d'Arca,-9.532,-36.433
945,3,270910,Taquarana,-9.645,-36.497
946,1,270915,Teotônio Vilela,-9.905,-36.353
947,3,270920,Traipu,-9.971,-37.003
948,5,270930,União dos Palmares,-9.163,-36.032
949,2,270940,Viçosa,-9.371,-36.241
950,4,280020,Aquidabã,-10.281,-37.019
951,23,280030,Aracaju,-10.911,-37.072
952,2,280040,Arauá,-11.262,-37.62
953,2,280050,Areia Branca,-10.758,-37.315
954,3,280060,Barra dos Coqueiros,-10.909,-37.039
955,2,280067,Boquim,-11.147,-37.621
956,3,280100,Campo do Brito,-10.733,-37.493
957,1,280120,Canindé de São Francisco,-9.642,-37.788
958,1,280140,Carira,-10.361,-37.701
959,1,280150,Carmópolis,-10.648,-36.989
960,2,280190,Cumbe,-10.355,-37.183
961,3,280210,Estância,-11.268,-37.438
962,1,280240,Gararu,-9.968,-37.083
963,1,280260,Gracho Cardoso,-10.227,-37.198
964,1,280270,Ilha das Flores,-10.436,-36.54
965,1,280280,Indiaroba,-11.519,-37.512
966,7,280290,Itabaiana,-10.685,-37.425
967,2,280300,Itabaianinha,-11.274,-37.79
968,2,280320,Itaporanga d'Ajuda,-10.998,-37.311
969,3,280330,Japaratuba,-10.593,-36.94
970,10,280350,Lagarto,-10.917,-37.65
971,1,280360,Laranjeiras,-10.806,-37.17
972,1,280400,Maruim,-10.738,-37.082
973,2,280420,Monte Alegre de Sergipe,-10.027,-37.562
974,2,280430,Muribeca,-10.427,-36.959
975,1,280440,Neópolis,-10.32,-36.579
976,1,280445,Nossa Senhora Aparecida,-10.443,-37.489
977,2,280450,Nossa Senhora da Glória,-10.218,-37.42
978,3,280460,Nossa Senhora das Dores,-10.492,-37.193
979,13,280480,Nossa Senhora do Socorro,-10.855,-37.126
980,1,280520,Pinhão,-10.567,-37.723
981,1,280540,Poço Redondo,-9.806,-37.685
982,1,280550,Poço Verde,-10.708,-38.183
983,1,280560,Porto da Folha,-9.917,-37.278
984,1,280570,Propriá,-10.211,-36.84
985,1,280580,Riachão do Dantas,-11.069,-37.725
986,1,280590,Riachuelo,-10.728,-37.187
987,2,280600,Ribeirópolis,-10.539,-37.417
988,2,280620,Salgado,-11.032,-37.475
989,1,280630,Santa Luzia do Itanhy,-11.351,-37.448
990,5,280670,São Cristóvão,-11.015,-37.206
991,1,280680,São Domingos,-10.791,-37.568
992,1,280690,São Francisco,-10.333,-36.888
993,5,280710,Simão Dias,-10.738,-37.811
994,1,280720,Siriri,-10.604,-37.113
995,4,280740,Tobias Barreto,-11.184,-37.998
996,2,280750,Tomar do Geru,-11.373,-37.841
997,2,280760,Umbaúba,-11.383,-37.658
998,4,290020,Abaré,-8.721,-39.115
999,1,290035,Adustina,-10.533,-38.1
1000,2,290040,Água Fria,-11.867,-38.767
1001,1,290050,Érico Cardoso,-13.418,-42.14
1002,1,290060,Aiquara,-14.129,-39.888
1003,7,290070,Alagoinhas,-12.136,-38.419
1004,1,290080,Alcobaça,-17.519,-39.196
1005,2,290100,Amargosa,-13.03,-39.605
1006,1,290110,Amélia Rodrigues,-12.409,-38.759
1007,3,290120,Anagé,-14.612,-41.136
1008,2,290130,Andaraí,-12.807,-41.331
1009,2,290135,Andorinha,-10.345,-39.833
1010,1,290140,Angical,-12.007,-44.694
1011,1,290160,Antas,-10.4,-38.333
1012,3,290190,Aporá,-11.66,-38.081
1013,1,290195,Apuarema,-13.856,-39.744
1014,1,290205,Araças,-12.22,-38.203
1015,2,290210,Araci,-11.333,-38.967
1016,1,290220,Aramari,-12.082,-38.499
1017,1,290240,Aurelino Leal,-14.317,-39.327
1018,1,290280,Barra da Estiva,-13.626,-41.327
1019,2,290290,Barra do Choça,-14.881,-40.579
1020,2,290300,Barra do Mendes,-11.81,-42.059
1021,1,290320,Barreiras,-12.153,-44.99
1022,2,290323,Barro Alto,-11.761,-41.912
1023,1,290330,Barro Preto,-14.81,-39.471
1024,1,290340,Belmonte,-15.863,-38.883
1025,1,290360,Biritinga,-11.617,-38.8
1026,2,290380,Boa Vista do Tupim,-12.66,-40.609
1027,2,290405,Bonito,-11.966,-41.267
1028,3,290410,Boquira,-12.823,-42.731
1029,2,290420,Botuporã,-13.382,-42.523
1030,1,290430,Brejões,-13.104,-39.796
1031,1,290450,Brotas de Macaúbas,-11.999,-42.626
1032,5,290460,Brumado,-14.204,-41.665
1033,4,290475,Buritirama,-10.708,-43.631
1034,1,290485,Cabaceiras do Paraguaçu,-12.536,-39.191
1035,1,290500,Caculé,-14.503,-42.222
1036,2,290515,Caetanos,-14.338,-40.91
1037,2,290520,Caetité,-14.069,-42.475
1038,1,290530,Cafarnaum,-11.694,-41.468
1039,1,290560,Camacan,-15.419,-39.496
1040,7,290570,Camaçari,-12.698,-38.324
1041,2,290580,Camamu,-13.945,-39.104
1042,1,290590,Campo Alegre de Lourdes,-9.516,-43.011
1043,4,290600,Campo Formoso,-10.509,-40.321
1044,1,290610,Canápolis,-13.07,-44.202
1045,4,290620,Canarana,-11.685,-41.769
1046,4,290630,Canavieiras,-15.675,-38.947
1047,1,290670,Cândido Sales,-15.505,-41.239
1048,4,290680,Cansanção,-10.671,-39.498
1049,1,290682,Canudos,-9.964,-39.164
1050,3,290710,Carinhanha,-14.305,-43.765
1051,3,290720,Casa Nova,-9.162,-40.971
1052,2,290750,Catu,-12.353,-38.379
1053,2,290780,Cícero Dantas,-10.6,-38.383
1054,1,290790,Cipó,-11.1,-38.517
1055,1,290800,Coaraci,-14.641,-39.551
1056,2,290810,Cocos,-14.184,-44.534
1057,2,290840,Conceição do Coité,-11.564,-39.283
1058,2,290850,Conceição do Jacuípe,-12.327,-38.765
1059,1,290860,Conde,-11.814,-37.611
1060,2,290870,Condeúba,-14.895,-41.969
1061,2,290890,Coração de Maria,-12.233,-38.75
1062,1,290920,Coronel João Sá,-10.284,-37.926
1063,2,290930,Correntina,-13.343,-44.637
1064,1,290940,Cotegipe,-12.028,-44.258
1065,1,290960,Crisópolis,-11.511,-38.15
1066,5,290980,Cruz das Almas,-12.67,-39.102
1067,3,290990,Curaçá,-8.992,-39.908
1068,2,291005,Dias d'Ávila,-12.613,-38.297
1069,1,291010,Dom Basílio,-13.76,-41.771
1070,1,291040,Encruzilhada,-15.531,-40.909
1071,1,291070,Euclides da Cunha,-10.508,-39.014
1072,4,291072,Eunápolis,-16.378,-39.58
1073,2,291075,Fátima,-10.6,-38.217
1074,8,291080,Feira de Santana,-12.267,-38.967
1075,1,291085,Filadélfia,-10.741,-40.133
1076,2,291120,Gandu,-13.744,-39.487
1077,2,291130,Gentio do Ouro,-11.429,-42.506
1078,2,291140,Glória,-9.339,-38.257
1079,9,291170,Guanambi,-14.223,-42.781
1080,1,291180,Guaratinga,-16.584,-39.783
1081,1,291185,Heliópolis,-10.683,-38.286
1082,1,291200,Ibiassucê,-14.259,-42.257
1083,1,291230,Ibicuí,-14.842,-39.987
1084,1,291240,Ibipeba,-11.641,-42.011
1085,1,291250,Ibipitanga,-12.882,-42.486
1086,2,291290,Ibirataia,-14.067,-39.641
1087,1,291310,Ibititá,-11.547,-41.978
1088,3,291320,Ibotirama,-12.185,-43.221
1089,1,291330,Ichu,-11.749,-39.192
1090,1,291345,Igrapiúna,-13.826,-39.142
1091,1,291350,Iguaí,-14.756,-40.089
1092,7,291360,Ilhéus,-14.789,-39.049
1093,2,291370,Inhambupe,-11.784,-38.353
1094,4,291400,Ipirá,-12.158,-39.737
1095,1,291440,Iraquara,-12.249,-41.619
1096,4,291460,Irecê,-11.304,-41.856
1097,1,291465,Itabela,-16.575,-39.553
1098,4,291470,Itaberaba,-12.528,-40.307
1099,4,291480,Itabuna,-14.786,-39.28
1100,3,291490,Itacaré,-14.278,-38.997
1101,1,291500,Itaeté,-12.986,-40.973
1102,1,291570,Itamari,-13.778,-39.684
1103,1,291600,Itanhém,-17.166,-40.33
1104,1,291610,Itaparica,-12.888,-38.679
1105,4,291640,Itapetinga,-15.249,-40.248
1106,2,291650,Itapicuru,-11.317,-38.233
1107,3,291700,Itiúba,-10.691,-39.853
1108,2,291710,Itororó,-15.117,-40.07
1109,1,291720,Ituaçu,-13.813,-41.297
1110,3,291730,Ituberá,-13.732,-39.149
1111,1,291735,Jaborandi,-13.619,-44.433
1112,2,291750,Jacobina,-11.181,-40.518
1113,1,291760,Jaguaquara,-13.531,-39.971
1114,5,291800,Jequié,-13.858,-40.084
1115,3,291810,Jeremoabo,-10.067,-38.35
1116,1,291820,Jiquiriçá,-13.257,-39.572
1117,10,291840,Juazeiro,-9.414,-40.503
1118,1,291850,Jussara,-11.047,-41.969
1119,1,291860,Jussiape,-13.517,-41.593
1120,1,291870,Lafaiete Coutinho,-13.656,-40.213
1121,1,291880,Laje,-13.182,-39.425
1122,2,291900,Lajedinho,-12.356,-40.906
1123,1,291915,Lapão,-11.383,-41.832
1124,2,291920,Lauro de Freitas,-12.894,-38.327
1125,1,291930,Lençóis,-12.563,-41.39
1126,2,291940,Licínio de Almeida,-14.682,-42.508
1127,2,291950,Livramento de Nossa Senhora,-13.643,-41.841
1128,4,291955,Luís Eduardo Magalhães,-12.092,-45.805
1129,2,291980,Macaúbas,-13.019,-42.699
1130,1,291992,Madre de Deus,-12.741,-38.621
1131,1,292010,Mairi,-11.711,-40.149
1132,1,292020,Malhada,-14.336,-43.774
1133,1,292030,Malhada de Pedras,-14.388,-41.879
1134,2,292045,Mansidão,-10.716,-44.034
1135,2,292060,Maragogipe,-12.778,-38.919
1136,2,292070,Maraú,-14.103,-39.015
1137,1,292090,Mascote,-15.563,-39.303
1138,2,292105,Matina,-13.909,-42.849
1139,1,292120,Miguel Calmon,-11.429,-40.595
1140,2,292140,Mirangaba,-10.954,-40.576
1141,3,292150,Monte Santo,-10.438,-39.333
1142,2,292170,Morro do Chapéu,-11.55,-41.156
1143,1,292180,Mortugaba,-15.023,-42.368
1144,2,292200,Mucuri,-18.086,-39.551
1145,1,292205,Mulungu do Morro,-11.966,-41.639
1146,1,292210,Mundo Novo,-11.859,-40.472
1147,1,292220,Muniz Ferreira,-13.003,-39.11
1148,2,292230,Muritiba,-12.626,-38.99
1149,1,292250,Nazaré,-13.035,-39.014
1150,2,292285,Nova Redenção,-12.819,-41.071
1151,2,292290,Nova Soure,-11.233,-38.483
1152,1,292300,Nova Viçosa,-17.892,-39.372
1153,1,292303,Novo Horizonte,-12.808,-42.168
1154,1,292310,Olindina,-11.367,-38.333
1155,4,292320,Oliveira dos Brejinhos,-12.317,-42.896
1156,1,292340,Palmas de Monte Alto,-14.267,-43.162
1157,1,292360,Paramirim,-13.443,-42.239
1158,4,292370,Paratinga,-12.691,-43.184
1159,9,292400,Paulo Afonso,-9.408,-38.222
1160,2,292405,Pé de Serra,-11.834,-39.613
1161,1,292410,Pedrão,-12.15,-38.65
1162,4,292440,Pilão Arcado,-10.003,-42.504
1163,1,292450,Pindaí,-14.493,-42.687
1164,1,292465,Pintadas,-11.813,-39.909
1165,2,292510,Poções,-14.53,-40.365
1166,1,292520,Pojuca,-12.431,-38.328
1167,2,292525,Ponto Novo,-10.862,-40.134
1168,8,292530,Porto Seguro,-16.45,-39.065
1169,1,292540,Potiraguá,-15.595,-39.877
1170,1,292550,Prado,-17.341,-39.221
1171,1,292560,Presidente Dutra,-11.296,-41.987
1172,2,292570,Presidente Jânio Quadros,-14.689,-41.678
1173,2,292575,Presidente Tancredo Neves,-13.449,-39.42
1174,1,292590,Quijingue,-10.753,-39.21
1175,1,292600,Remanso,-9.622,-42.081
1176,1,292620,Riachão das Neves,-11.746,-44.91
1177,2,292630,Riachão do Jacuípe,-11.81,-39.382
1178,2,292640,Riacho de Santana,-13.609,-42.939
1179,3,292660,Ribeira do Pombal,-10.834,-38.536
1180,1,292670,Rio de Contas,-13.579,-41.811
1181,2,292700,Rio Real,-11.485,-37.933
1182,1,292710,Rodelas,-8.851,-38.756
1183,2,292720,Ruy Barbosa,-12.284,-40.494
1184,68,292740,Salvador,-12.971,-38.511
1185,1,292760,Santa Brígida,-9.736,-38.126
1186,1,292780,Santa Cruz da Vitória,-14.961,-39.812
1187,1,292800,Santaluz,-11.256,-39.375
1188,1,292810,Santa Maria da Vitória,-13.398,-44.198
1189,4,292820,Santana,-12.983,-44.051
1190,2,292840,Santa Rita de Cássia,-11.009,-44.519
1191,5,292860,Santo Amaro,-12.547,-38.712
1192,4,292870,Santo Antônio de Jesus,-12.969,-39.261
1193,1,292880,Santo Estêvão,-12.43,-39.251
1194,1,292890,São Desidério,-12.363,-44.973
1195,1,292900,São Félix,-12.605,-38.972
1196,2,292905,São Félix do Coribe,-13.402,-44.195
1197,2,292910,São Felipe,-12.847,-39.089
1198,1,292920,São Francisco do Conde,-12.628,-38.68
1199,2,292925,São Gabriel,-11.229,-41.912
1200,1,292930,São Gonçalo dos Campos,-12.433,-38.967
1201,1,292960,Sapeaçu,-12.728,-39.182
1202,1,292970,Sátiro Dias,-11.6,-38.6
1203,1,292980,Saúde,-10.941,-40.418
1204,2,292990,Seabra,-12.419,-41.77
1205,4,293010,Senhor do Bonfim,-10.463,-40.191
1206,2,293015,Serra do Ramalho,-13.572,-43.598
1207,1,293020,Sento Sé,-9.746,-41.885
1208,2,293030,Serra Dourada,-12.761,-43.95
1209,5,293050,Serrinha,-11.664,-39.008
1210,1,293060,Serrolândia,-11.416,-40.302
1211,2,293070,Simões Filho,-12.784,-38.404
1212,1,293080,Souto Soares,-12.089,-41.638
1213,1,293090,Tabocas do Brejo Velho,-12.706,-44.007
1214,1,293100,Tanhaçu,-14.021,-41.248
1215,3,293105,Tanque Novo,-13.546,-42.491
1216,1,293110,Tanquinho,-11.979,-39.104
1217,1,293130,Tapiramutá,-11.847,-40.791
1218,2,293135,Teixeira de Freitas,-17.535,-39.742
1219,1,293140,Teodoro Sampaio,-12.303,-38.643
1220,1,293150,Teofilândia,-11.489,-38.998
1221,1,293160,Teolândia,-13.602,-39.491
1222,2,293180,Tremedal,-14.976,-41.411
1223,1,293190,Tucano,-10.963,-38.787
1224,1,293200,Uauá,-9.842,-39.482
1225,2,293210,Ubaíra,-13.268,-39.663
1226,1,293220,Ubaitaba,-14.313,-39.323
1227,1,293240,Uibaí,-11.337,-42.133
1228,1,293245,Umburanas,-10.733,-41.326
1229,1,293250,Una,-15.293,-39.075
1230,2,293260,Urandi,-14.771,-42.655
1231,3,293290,Valença,-13.37,-39.073
1232,1,293325,Vereda,-17.223,-40.09
1233,15,293330,Vitória da Conquista,-14.866,-40.839
1234,2,293345,Wanderley,-12.12,-43.888
1235,5,293360,Xique-Xique,-10.822,-42.731
1236,1,310010,Abadia dos Dourados,-18.486,-47.403
1237,1,310020,Abaeté,-19.16,-45.446
1238,3,310030,Abre Campo,-20.301,-42.478
1239,1,310080,Aguanil,-20.943,-45.393
1240,2,310090,Águas Formosas,-17.082,-40.936
1241,1,310110,Aimorés,-19.496,-41.064
1242,1,310130,Alagoa,-22.171,-44.642
1243,2,310150,Além Paraíba,-21.888,-42.704
1244,7,310160,Alfenas,-21.429,-45.947
1245,1,310163,Alfredo Vasconcelos,-21.145,-43.777
1246,1,310170,Almenara,-16.184,-40.694
1247,1,310180,Alpercata,-18.974,-41.97
1248,3,310200,Alterosa,-21.249,-46.143
1249,3,310210,Alto Rio Doce,-21.026,-43.411
1250,3,310230,Alvinópolis,-20.107,-43.049
1251,2,310240,Alvorada de Minas,-18.736,-43.365
1252,1,310250,Amparo do Serra,-20.507,-42.803
1253,8,310260,Andradas,-22.068,-46.569
1254,3,310280,Andrelândia,-21.74,-44.309
1255,1,310300,Antônio Dias,-19.653,-42.872
1256,11,310350,Araguari,-18.649,-48.187
1257,1,310360,Arantina,-21.911,-44.256
1258,3,310370,Araponga,-20.667,-42.521
1259,1,310390,Araújos,-19.948,-45.166
1260,10,310400,Araxá,-19.593,-46.941
1261,1,310410,Arceburgo,-21.364,-46.94
1262,6,310420,Arcos,-20.282,-45.539
1263,2,310430,Areado,-21.359,-46.146
1264,1,310445,Aricanduva,-17.867,-42.557
1265,3,310450,Arinos,-15.917,-46.106
1266,2,310460,Astolfo Dutra,-21.315,-42.862
1267,1,310490,Baependi,-21.959,-44.89
1268,1,310500,Baldim,-19.288,-43.957
1269,5,310510,Bambuí,-20.006,-45.977
1270,3,310530,Bandeira do Sul,-21.728,-46.386
1271,2,310540,Barão de Cocais,-19.946,-43.487
1272,8,310560,Barbacena,-21.226,-43.774
1273,2,310600,Bela Vista de Minas,-19.83,-43.091
1274,145,310620,Belo Horizonte,-19.817,-43.956
1275,1,310630,Belo Oriente,-19.22,-42.484
1276,1,310640,Belo Vale,-20.408,-44.024
1277,18,310670,Betim,-19.968,-44.198
1278,2,310690,Bicas,-21.725,-43.059
1279,2,310710,Boa Esperança,-21.09,-45.566
1280,1,310720,Bocaina de Minas,-22.168,-44.395
1281,4,310730,Bocaiúva,-17.108,-43.815
1282,2,310740,Bom Despacho,-19.736,-45.252
1283,1,310750,Bom Jardim de Minas,-21.947,-44.191
1284,1,310770,Bom Jesus do Amparo,-19.704,-43.474
1285,2,310780,Bom Jesus do Galho,-19.829,-42.316
1286,2,310790,Bom Repouso,-22.471,-46.145
1287,1,310825,Bonito de Minas,-15.323,-44.754
1288,2,310830,Borda da Mata,-22.274,-46.165
1289,1,310840,Botelhos,-21.633,-46.395
1290,1,310855,Brasilândia de Minas,-17.01,-46.009
1291,2,310860,Brasília de Minas,-16.208,-44.429
1292,2,310870,Brás Pires,-20.921,-43.242
1293,1,310880,Braúnas,-19.056,-42.716
1294,1,310900,Brumadinho,-20.143,-44.2
1295,1,310910,Bueno Brandão,-22.441,-46.351
1296,2,310920,Buenópolis,-17.873,-44.18
1297,2,310930,Buritis,-15.618,-46.423
1298,2,310940,Buritizeiro,-17.351,-44.962
1299,1,310950,Cabo Verde,-21.472,-46.396
1300,2,310970,Cachoeira de Minas,-22.355,-45.779
1301,3,311000,Caeté,-19.88,-43.67
1302,5,311030,Caldas,-21.924,-46.386
1303,4,311050,Camanducaia,-22.755,-46.145
1304,2,311060,Cambuí,-22.612,-46.058
1305,3,311090,Campanha,-21.836,-45.401
1306,3,311100,Campestre,-21.711,-46.246
1307,1,311110,Campina Verde,-19.536,-49.486
1308,2,311120,Campo Belo,-20.897,-45.277
1309,1,311130,Campo do Meio,-21.107,-45.83
1310,2,311140,Campo Florido,-19.761,-48.572
1311,2,311150,Campos Altos,-19.696,-46.171
1312,2,311160,Campos Gerais,-21.235,-45.759
1313,1,311180,Canápolis,-18.725,-49.204
1314,2,311190,Cana Verde,-21.021,-45.182
1315,1,311220,Capela Nova,-20.923,-43.618
1316,2,311230,Capelinha,-17.691,-42.516
1317,1,311250,Capim Branco,-19.549,-44.117
1318,3,311280,Capitólio,-20.615,-46.05
1319,2,311300,Caraí,-17.189,-41.695
1320,2,311320,Carandaí,-20.954,-43.806
1321,1,311330,Carangola,-20.733,-42.029
1322,5,311340,Caratinga,-19.79,-42.139
1323,1,311370,Carlos Chagas,-17.703,-40.766
1324,1,311390,Carmo da Cachoeira,-21.461,-45.224
1325,1,311400,Carmo da Mata,-20.558,-44.871
1326,4,311420,Carmo do Cajuru,-20.184,-44.771
1327,4,311430,Carmo do Paranaíba,-19.001,-46.316
1328,5,311440,Carmo do Rio Claro,-20.972,-46.119
1329,3,311450,Carmópolis de Minas,-20.541,-44.635
1330,1,311460,Carrancas,-21.488,-44.643
1331,2,311480,Carvalhos,-22.001,-44.461
1332,1,311510,Cássia,-20.583,-46.922
1333,1,311530,Cataguases,-21.389,-42.697
1334,1,311547,Catuti,-15.358,-42.963
1335,6,311550,Caxambu,-21.977,-44.933
1336,1,311570,Central de Minas,-18.762,-41.306
1337,1,311580,Centralina,-18.584,-49.199
1338,2,311590,Chácara,-21.672,-43.222
1339,1,311610,Chapada do Norte,-17.087,-42.535
1340,3,311630,Cipotânea,-20.905,-43.366
1341,4,311660,Cláudio,-20.443,-44.766
1342,1,311670,Coimbra,-20.857,-42.803
1343,1,311700,Comercinho,-16.296,-41.793
1344,1,311710,Conceição da Aparecida,-21.094,-46.204
1345,1,311720,Conceição das Pedras,-22.16,-45.455
1346,4,311730,Conceição das Alagoas,-19.915,-48.388
1347,4,311750,Conceição do Mato Dentro,-19.037,-43.425
1348,1,311760,Conceição do Pará,-19.753,-44.897
1349,2,311770,Conceição do Rio Verde,-21.881,-45.085
1350,2,311790,Congonhal,-22.153,-46.039
1351,3,311800,Congonhas,-20.5,-43.858
1352,9,311830,Conselheiro Lafaiete,-20.66,-43.786
1353,2,311840,Conselheiro Pena,-19.172,-41.472
1354,1,311850,Consolação,-22.551,-45.921
1355,33,311860,Contagem,-19.932,-44.054
1356,1,311870,Coqueiral,-21.189,-45.441
1357,3,311880,Coração de Jesus,-16.685,-44.365
1358,1,311890,Cordisburgo,-19.125,-44.321
1359,1,311910,Corinto,-18.381,-44.456
1360,2,311930,Coromandel,-18.473,-47.2
1361,5,311940,Coronel Fabriciano,-19.519,-42.629
1362,1,311960,Coronel Pacheco,-21.588,-43.266
1363,1,311990,Córrego do Bom Jesus,-22.63,-46.02
1364,1,311995,Córrego Fundo,-20.449,-45.555
1365,1,312020,Cristais,-20.876,-45.519
1366,1,312050,Cristina,-22.212,-45.264
1367,2,312080,Cruzília,-21.839,-44.808
1368,6,312090,Curvelo,-18.756,-44.431
1369,1,312110,Delfim Moreira,-22.509,-45.28
1370,1,312125,Delta,-19.977,-47.771
1371,1,312130,Descoberto,-21.46,-42.968
1372,2,312140,Desterro de Entre Rios,-20.66,-44.333
1373,2,312160,Diamantina,-18.249,-43.6
1374,1,312190,Divinésia,-20.99,-43.004
1375,1,312200,Divino,-20.614,-42.149
1376,1,312220,Divinolândia de Minas,-18.804,-42.598
1377,31,312230,Divinópolis,-20.139,-44.884
1378,1,312235,Divisa Alegre,-15.726,-41.345
1379,1,312270,Dom Silvério,-20.16,-42.968
1380,3,312300,Dores de Campos,-21.109,-44.023
1381,1,312330,Dores do Turvo,-20.976,-43.189
1382,1,312352,Durandé,-20.203,-41.798
1383,6,312360,Elói Mendes,-21.61,-45.565
1384,2,312390,Entre Rios de Minas,-20.671,-44.066
1385,2,312400,Ervália,-20.84,-42.657
1386,5,312410,Esmeraldas,-19.763,-44.314
1387,1,312420,Espera Feliz,-20.65,-41.907
1388,2,312430,Espinosa,-14.926,-42.819
1389,2,312450,Estiva,-22.463,-46.017
1390,4,312510,Extrema,-22.855,-46.318
1391,2,312560,Felisburgo,-16.639,-40.761
1392,1,312570,Felixlândia,-18.758,-44.899
1393,2,312590,Ferros,-19.232,-43.023
1394,1,312595,Fervedouro,-20.726,-42.279
1395,7,312610,Formiga,-20.464,-45.426
1396,1,312640,Fortuna de Minas,-19.561,-44.447
1397,3,312670,Francisco Sá,-16.476,-43.488
1398,1,312680,Frei Gaspar,-18.066,-41.429
1399,1,312695,Frei Lagonegro,-18.168,-42.766
1400,8,312710,Frutal,-20.025,-48.941
1401,1,312735,Glaucilândia,-16.85,-43.697
1402,2,312740,Gonçalves,-22.659,-45.856
1403,3,312760,Gouveia,-18.454,-43.741
1404,19,312770,Governador Valadares,-18.851,-41.949
1405,1,312780,Grão Mogol,-16.559,-42.89
1406,4,312800,Guanhães,-18.775,-42.933
1407,1,312810,Guapé,-20.762,-45.918
1408,1,312820,Guaraciaba,-20.571,-43.008
1409,1,312830,Guaranésia,-21.299,-46.803
1410,2,312840,Guarani,-21.352,-43.047
1411,2,312860,Guarda-Mor,-17.771,-47.098
1412,3,312870,Guaxupé,-21.305,-46.713
1413,2,312880,Guidoval,-21.152,-42.797
1414,1,312890,Guimarânia,-18.844,-46.793
1415,1,312930,Iapu,-19.437,-42.218
1416,1,312940,Ibertioga,-21.43,-43.963
1417,3,312950,Ibiá,-19.478,-46.539
1418,7,312980,Ibirité,-20.022,-44.059
1419,1,312990,Ibitiúra de Minas,-22.061,-46.44
1420,2,313010,Igarapé,-20.07,-44.302
1421,2,313020,Igaratinga,-19.955,-44.709
1422,1,313030,Iguatama,-20.174,-45.711
1423,3,313050,Ilicínea,-20.936,-45.833
1424,1,313070,Indianópolis,-19.039,-47.917
1425,1,313110,Inimutaba,-18.729,-44.361
1426,10,313130,Ipatinga,-19.468,-42.537
1427,1,313150,Ipuiúna,-22.099,-46.19
1428,5,313170,Itabira,-19.619,-43.227
1429,3,313190,Itabirito,-20.253,-43.801
1430,1,313210,Itacarambi,-15.102,-44.092
1431,2,313220,Itaguara,-20.392,-44.488
1432,6,313240,Itajubá,-22.426,-45.453
1433,2,313250,Itamarandiba,-17.857,-42.859
1434,2,313270,Itambacuri,-18.031,-41.685
1435,1,313300,Itamonte,-22.284,-44.87
1436,1,313310,Itanhandu,-22.296,-44.935
1437,1,313320,Itanhomi,-19.172,-41.865
1438,1,313330,Itaobim,-16.562,-41.503
1439,1,313340,Itapagipe,-19.909,-49.381
1440,11,313350,Itapecerica,-20.473,-45.126
1441,1,313370,Itatiaiuçu,-20.197,-44.421
1442,8,313380,Itaúna,-20.075,-44.576
1443,7,313420,Ituiutaba,-18.969,-49.465
1444,1,313430,Itumirim,-21.317,-44.871
1445,5,313440,Iturama,-19.728,-50.196
1446,3,313450,Itutinga,-21.298,-44.658
1447,1,313480,Jacuí,-21.017,-46.741
1448,1,313490,Jacutinga,-22.286,-46.612
1449,1,313500,Jaguaraçu,-19.649,-42.75
1450,13,313510,Janaúba,-15.803,-43.309
1451,7,313520,Januária,-15.488,-44.362
1452,1,313530,Japaraíba,-20.141,-45.503
1453,1,313535,Japonvar,-15.995,-44.27
1454,2,313540,Jeceaba,-20.535,-43.983
1455,4,313550,Jequeri,-20.456,-42.666
1456,1,313560,Jequitaí,-17.236,-44.446
1457,2,313570,Jequitibá,-19.236,-44.028
1458,1,313580,Jequitinhonha,-16.434,-41.003
1459,2,313590,Jesuânia,-21.998,-45.291
1460,1,313600,Joaíma,-16.654,-41.031
1461,1,313610,Joanésia,-19.172,-42.679
1462,5,313620,João Monlevade,-19.81,-43.174
1463,6,313630,João Pinheiro,-17.743,-46.173
1464,1,313657,Josenópolis,-16.547,-42.515
1465,1,313665,Juatuba,-19.952,-44.343
1466,37,313670,Juiz de Fora,-21.764,-43.35
1467,1,313690,Juruaia,-21.253,-46.577
1468,1,313695,Juvenília,-14.263,-44.16
1469,1,313710,Lagamar,-18.178,-46.808
1470,2,313720,Lagoa da Prata,-20.023,-45.544
1471,1,313740,Lagoa Dourada,-20.914,-44.078
1472,2,313750,Lagoa Formosa,-18.779,-46.408
1473,2,313753,Lagoa Grande,-17.835,-46.514
1474,2,313760,Lagoa Santa,-19.627,-43.89
1475,1,313770,Lajinha,-20.151,-41.623
1476,3,313780,Lambari,-21.976,-45.35
1477,13,313820,Lavras,-21.245,-45.0
1478,5,313840,Leopoldina,-21.532,-42.643
1479,4,313860,Lima Duarte,-21.843,-43.793
1480,1,313862,Limeira do Oeste,-19.551,-50.581
1481,2,313867,Luisburgo,-20.44,-42.103
1482,2,313868,Luislândia,-16.118,-44.589
1483,1,313870,Luminárias,-21.511,-44.903
1484,5,313880,Luz,-19.801,-45.686
1485,1,313900,Machado,-21.675,-45.92
1486,2,313910,Madre de Deus de Minas,-21.483,-44.33
1487,2,313920,Malacacheta,-17.842,-42.077
1488,2,313925,Mamonas,-15.05,-42.949
1489,2,313930,Manga,-14.756,-43.932
1490,9,313940,Manhuaçu,-20.258,-42.034
1491,1,313950,Manhumirim,-20.358,-41.958
1492,1,313980,Mar de Espanha,-21.867,-43.01
1493,3,313990,Maria da Fé,-22.308,-45.375
1494,1,314000,Mariana,-20.378,-43.416
1495,3,314050,Martinho Campos,-19.332,-45.237
1496,1,314053,Martins Soares,-20.257,-41.877
1497,1,314080,Matias Barbosa,-21.869,-43.319
1498,1,314100,Mato Verde,-15.397,-42.866
1499,1,314110,Matozinhos,-19.558,-44.081
1500,2,314120,Matutina,-19.223,-45.969
1501,2,314140,Medina,-16.223,-41.477
1502,2,314160,Mercês,-21.194,-43.341
1503,2,314180,Minas Novas,-17.219,-42.59
1504,1,314200,Mirabela,-16.263,-44.164
1505,1,314210,Miradouro,-20.891,-42.343
1506,1,314220,Miraí,-21.195,-42.614
1507,1,314225,Miravânia,-14.741,-44.404
1508,3,314230,Moeda,-20.333,-44.053
1509,1,314240,Moema,-19.843,-45.411
1510,1,314290,Monte Azul,-15.155,-42.875
1511,2,314300,Monte Belo,-21.326,-46.368
1512,1,314315,Monte Formoso,-16.866,-41.255
1513,1,314320,Monte Santo de Minas,-21.19,-46.98
1514,26,314330,Montes Claros,-16.735,-43.862
1515,2,314340,Monte Sião,-22.433,-46.573
1516,1,314380,Munhoz,-22.613,-46.361
1517,15,314390,Muriaé,-21.131,-42.366
1518,5,314400,Mutum,-19.8,-41.438
1519,3,314410,Muzambinho,-21.376,-46.526
1520,1,314430,Nanuque,-17.839,-40.354
1521,1,314450,Nazareno,-21.216,-44.611
1522,2,314460,Nepomuceno,-21.236,-45.236
1523,11,314480,Nova Lima,-19.986,-43.847
1524,1,314500,Nova Ponte,-19.136,-47.683
1525,2,314505,Nova Porteirinha,-15.803,-43.301
1526,4,314510,Nova Resende,-21.126,-46.42
1527,5,314520,Nova Serrana,-19.876,-44.984
1528,6,314530,Novo Cruzeiro,-17.468,-41.875
1529,1,314537,Novorizonte,-16.017,-42.408
1530,4,314560,Oliveira,-20.696,-44.827
1531,1,314570,Oliveira Fortes,-21.339,-43.456
1532,1,314587,Orizânia,-20.506,-42.21
1533,4,314590,Ouro Branco,-20.521,-43.692
1534,1,314600,Ouro Fino,-22.283,-46.369
1535,6,314610,Ouro Preto,-20.288,-43.508
1536,1,314625,Padre Carvalho,-16.364,-42.515
1537,1,314630,Padre Paraíso,-17.072,-41.524
1538,2,314640,Paineiras,-18.908,-45.532
1539,2,314650,Pains,-20.371,-45.661
1540,1,314690,Papagaios,-19.449,-44.748
1541,13,314700,Paracatu,-17.222,-46.875
1542,5,314710,Pará de Minas,-19.86,-44.608
1543,2,314720,Paraguaçu,-21.547,-45.738
1544,1,314740,Paraopeba,-19.274,-44.404
1545,1,314760,Passa Quatro,-22.39,-44.967
1546,2,314770,Passa Tempo,-20.651,-44.496
1547,8,314790,Passos,-20.719,-46.61
1548,13,314800,Patos de Minas,-18.579,-46.518
1549,10,314810,Patrocínio,-18.944,-46.993
1550,1,314830,Paula Cândido,-20.874,-42.98
1551,1,314840,Paulistas,-18.427,-42.868
1552,1,314870,Pedra Azul,-16.005,-41.297
1553,3,314910,Pedralva,-22.243,-45.466
1554,5,314930,Pedro Leopoldo,-19.618,-44.043
1555,1,314940,Pedro Teixeira,-21.706,-43.746
1556,1,314980,Perdizes,-19.353,-47.293
1557,3,314990,Perdões,-21.091,-45.091
1558,2,315050,Pimenta,-20.484,-45.799
1559,2,315053,Pingo-d'Água,-19.727,-42.408
1560,1,315070,Pirajuba,-19.907,-48.701
1561,1,315080,Piranga,-20.685,-43.3
1562,2,315130,Piraúba,-21.276,-43.026
1563,3,315140,Pitangui,-19.683,-44.89
1564,9,315150,Piumhi,-20.465,-45.958
1565,1,315170,Poço Fundo,-21.781,-45.965
1566,11,315180,Poços de Caldas,-21.788,-46.561
1567,1,315200,Pompéu,-19.224,-44.935
1568,2,315210,Ponte Nova,-20.416,-42.909
1569,2,315240,Poté,-17.807,-41.786
1570,13,315250,Pouso Alegre,-22.23,-45.936
1571,8,315280,Prata,-19.307,-48.924
1572,2,315290,Pratápolis,-20.745,-46.861
1573,1,315300,Pratinha,-19.751,-46.378
1574,1,315310,Presidente Bernardes,-20.769,-43.188
1575,5,315340,Presidente Olegário,-18.418,-46.418
1576,1,315380,Queluzito,-20.74,-43.884
1577,2,315400,Raul Soares,-20.102,-42.453
1578,1,315410,Recreio,-21.525,-42.469
1579,1,315415,Reduto,-20.24,-41.983
1580,2,315420,Resende Costa,-20.922,-44.238
1581,3,315430,Resplendor,-19.326,-41.255
1582,1,315450,Riacho dos Machados,-16.006,-43.049
1583,15,315460,Ribeirão das Neves,-19.767,-44.087
1584,1,315490,Rio Casca,-20.226,-42.651
1585,1,315530,Rio Manso,-20.265,-44.308
1586,3,315560,Rio Pardo de Minas,-15.61,-42.54
1587,2,315570,Rio Piracicaba,-19.929,-43.174
1588,2,315580,Rio Pomba,-21.275,-43.179
1589,1,315590,Rio Preto,-22.089,-43.828
1590,1,315600,Rio Vermelho,-18.294,-43.009
1591,1,315660,Rubim,-16.375,-40.538
1592,3,315670,Sabará,-19.886,-43.807
1593,1,315680,Sabinópolis,-18.666,-43.084
1594,1,315690,Sacramento,-19.865,-47.44
1595,3,315700,Salinas,-16.17,-42.29
1596,1,315710,Salto da Divisa,-16.003,-39.947
1597,1,315720,Santa Bárbara,-19.959,-43.415
1598,1,315730,Santa Bárbara do Tugúrio,-21.246,-43.559
1599,1,315733,Santa Cruz de Minas,-21.12,-44.223
1600,3,315770,Santa Juliana,-19.309,-47.525
1601,5,315780,Santa Luzia,-19.77,-43.851
1602,1,315800,Santa Maria de Itabira,-19.449,-43.113
1603,2,315830,Santana da Vargem,-21.249,-45.507
1604,3,315840,Santana de Cataguases,-21.287,-42.557
1605,2,315860,Santana do Deserto,-21.95,-43.166
1606,1,315890,Santana do Manhuaçu,-20.108,-41.925
1607,2,315895,Santana do Paraíso,-19.364,-42.569
1608,1,315930,Santa Rita de Jacutinga,-22.149,-44.095
1609,2,315935,Santa Rita de Minas,-19.875,-42.132
1610,1,315960,Santa Rita do Sapucaí,-22.252,-45.703
1611,2,316040,Santo Antônio do Monte,-20.087,-45.294
1612,1,316045,Santo Antônio do Retiro,-15.339,-42.624
1613,5,316070,Santos Dumont,-21.457,-43.553
1614,1,316095,São Domingos das Dores,-19.527,-42.011
1615,3,316100,São Domingos do Prata,-19.865,-42.968
1616,1,316110,São Francisco,-15.949,-44.864
1617,1,316120,São Francisco de Paula,-20.71,-44.985
1618,2,316140,São Francisco do Glória,-20.789,-42.268
1619,1,316150,São Geraldo,-20.923,-42.834
1620,1,316160,São Geraldo da Piedade,-18.836,-42.288
1621,2,316180,São Gonçalo do Pará,-19.983,-44.859
1622,1,316190,São Gonçalo do Rio Abaixo,-19.826,-43.362
1623,2,316200,São Gonçalo do Sapucaí,-21.892,-45.595
1624,4,316210,São Gotardo,-19.311,-46.049
1625,3,316240,São João da Ponte,-15.929,-44.008
1626,1,316245,São João das Missões,-14.884,-44.091
1627,8,316250,São João del Rei,-21.136,-44.262
1628,3,316257,São João do Manteninha,-18.721,-41.16
1629,1,316280,São João Evangelista,-18.548,-42.763
1630,1,316290,São João Nepomuceno,-21.54,-43.011
1631,4,316292,São Joaquim de Bicas,-20.049,-44.274
1632,1,316294,São José da Barra,-20.718,-46.311
1633,1,316300,São José da Safira,-18.324,-42.143
1634,1,316340,São José do Goiabal,-19.929,-42.705
1635,3,316350,São José do Jacuri,-18.275,-42.67
1636,3,316370,São Lourenço,-22.116,-45.054
1637,2,316380,São Miguel do Anta,-20.707,-42.719
1638,1,316400,São Pedro dos Ferros,-20.17,-42.524
1639,1,316430,São Roque de Minas,-20.245,-46.366
1640,2,316443,São Sebastião da Vargem Alegre,-21.072,-42.636
1641,1,316450,São Sebastião do Maranhão,-18.084,-42.571
1642,9,316470,São Sebastião do Paraíso,-20.917,-46.991
1643,3,316500,São Tiago,-20.913,-44.509
1644,1,316520,São Thomé das Letras,-21.722,-44.985
1645,1,316550,Sardoá,-18.784,-42.365
1646,3,316555,Setubinha,-17.6,-42.159
1647,1,316557,Senador Amaral,-22.587,-46.177
1648,2,316600,Senhora de Oliveira,-20.794,-43.344
1649,1,316670,Serra dos Aimorés,-17.783,-40.248
1650,1,316680,Serra do Salitre,-19.111,-46.69
1651,1,316700,Serranos,-21.89,-44.51
1652,23,316720,Sete Lagoas,-19.466,-44.247
1653,1,316740,Silvianópolis,-22.029,-45.835
1654,1,316750,Simão Pereira,-21.964,-43.312
1655,1,316760,Simonésia,-20.124,-42.001
1656,1,316770,Sobrália,-19.235,-42.098
1657,2,316800,Taiobeiras,-15.808,-42.233
1658,1,316840,Tarumirim,-19.281,-42.007
1659,11,316860,Teófilo Otoni,-17.858,-41.505
1660,2,316870,Timóteo,-19.583,-42.644
1661,2,316890,Tiros,-19.004,-45.964
1662,1,316910,Toledo,-22.743,-46.372
1663,1,316920,Tombos,-20.905,-42.023
1664,6,316930,Três Corações,-21.697,-45.253
1665,2,316935,Três Marias,-18.206,-45.242
1666,8,316940,Três Pontas,-21.367,-45.513
1667,2,316950,Tumiritinga,-18.979,-41.645
1668,4,316960,Tupaciguara,-18.593,-48.705
1669,2,316970,Turmalina,-17.286,-42.73
1670,9,316990,Ubá,-21.12,-42.943
1671,7,317010,Uberaba,-19.748,-47.932
1672,42,317020,Uberlândia,-18.919,-48.277
1673,13,317040,Unaí,-16.358,-46.906
1674,1,317043,União de Minas,-19.53,-50.336
1675,16,317070,Varginha,-21.551,-45.43
1676,6,317080,Várzea da Palma,-17.598,-44.731
1677,2,317090,Varzelândia,-15.701,-44.028
1678,4,317100,Vazante,-17.987,-46.908
1679,1,317115,Vermelho Novo,-20.036,-42.267
1680,5,317120,Vespasiano,-19.692,-43.923
1681,10,317130,Viçosa,-20.754,-42.882
1682,1,317150,Mathias Lobato,-18.592,-41.908
1683,2,317170,Virgínia,-22.333,-45.092
1684,1,317180,Virginópolis,-18.823,-42.704
1685,1,317190,Virgolândia,-18.476,-42.307
1686,5,317200,Visconde do Rio Branco,-21.01,-42.841
1687,1,317220,Wenceslau Braz,-22.534,-45.363
1688,9,320010,Afonso Cláudio,-20.074,-41.124
1689,1,320013,Águia Branca,-18.983,-40.74
1690,2,320016,Água Doce do Norte,-18.547,-40.979
1691,1,320020,Alegre,-20.764,-41.533
1692,3,320040,Anchieta,-20.722,-40.782
1693,1,320050,Apiacá,-21.154,-41.568
1694,3,320060,Aracruz,-19.82,-40.273
1695,3,320090,Barra de São Francisco,-18.755,-40.891
1696,2,320115,Brejetuba,-20.146,-41.29
1697,14,320120,Cachoeiro de Itapemirim,-20.849,-41.113
1698,23,320130,Cariacica,-20.264,-40.42
1699,2,320140,Castelo,-20.604,-41.185
1700,7,320150,Colatina,-19.539,-40.631
1701,2,320160,Conceição da Barra,-18.593,-39.732
1702,4,320170,Conceição do Castelo,-20.368,-41.244
1703,6,320190,Domingos Martins,-20.363,-40.659
1704,3,320210,Ecoporanga,-18.373,-40.831
1705,2,320220,Fundão,-19.933,-40.407
1706,1,320225,Governador Lindenberg,-19.252,-40.461
1707,4,320230,Guaçuí,-20.776,-41.679
1708,8,320240,Guarapari,-20.658,-40.511
1709,3,320245,Ibatiba,-20.234,-41.511
1710,2,320250,Ibiraçu,-19.832,-40.37
1711,1,320270,Itaguaçu,-19.802,-40.856
1712,2,320280,Itapemirim,-21.011,-40.834
1713,2,320290,Itarana,-19.874,-40.875
1714,1,320300,Iúna,-20.346,-41.536
1715,1,320310,Jerônimo Monteiro,-20.789,-41.395
1716,1,320316,Laranja da Terra,-19.899,-41.057
1717,9,320320,Linhares,-19.391,-40.072
1718,1,320330,Mantenópolis,-18.863,-41.123
1719,5,320332,Marataízes,-21.043,-40.824
1720,2,320334,Marechal Floriano,-20.413,-40.683
1721,3,320340,Mimoso do Sul,-21.064,-41.366
1722,1,320350,Montanha,-18.127,-40.363
1723,2,320360,Mucurici,-18.093,-40.516
1724,2,320370,Muniz Freire,-20.464,-41.413
1725,4,320390,Nova Venécia,-18.711,-40.401
1726,2,320420,Piúma,-20.835,-40.729
1727,1,320430,Presidente Kennedy,-21.099,-41.047
1728,1,320435,Rio Bananal,-19.265,-40.333
1729,2,320450,Santa Leopoldina,-20.101,-40.53
1730,2,320455,Santa Maria de Jetibá,-20.041,-40.746
1731,3,320460,Santa Teresa,-19.936,-40.6
1732,1,320465,São Domingos do Norte,-19.144,-40.624
1733,1,320470,São Gabriel da Palha,-19.017,-40.536
1734,7,320490,São Mateus,-18.716,-39.859
1735,21,320500,Serra,-20.129,-40.308
1736,1,320501,Sooretama,-19.197,-40.098
1737,4,320503,Vargem Alta,-20.671,-41.007
1738,5,320506,Venda Nova do Imigrante,-20.34,-41.135
1739,1,320510,Viana,-20.39,-40.496
1740,1,320517,Vila Valério,-18.998,-40.389
1741,22,320520,Vila Velha,-20.33,-40.292
1742,21,320530,Vitória,-20.319,-40.338
1743,7,330010,Angra dos Reis,-23.007,-44.318
1744,7,330020,Araruama,-22.873,-42.343
1745,2,330023,Armação dos Búzios,-22.747,-41.882
1746,2,330025,Arraial do Cabo,-22.966,-42.028
1747,6,330030,Barra do Piraí,-22.47,-43.826
1748,6,330040,Barra Mansa,-22.544,-44.171
1749,8,330045,Belford Roxo,-22.764,-43.399
1750,2,330050,Bom Jardim,-22.152,-42.419
1751,3,330060,Bom Jesus do Itabapoana,-21.134,-41.68
1752,7,330070,Cabo Frio,-22.879,-42.019
1753,3,330080,Cachoeiras de Macacu,-22.463,-42.653
1754,1,330090,Cambuci,-21.575,-41.911
1755,21,330100,Campos dos Goytacazes,-21.754,-41.324
1756,3,330110,Cantagalo,-21.981,-42.368
1757,1,330120,Carmo,-21.934,-42.609
1758,2,330150,Cordeiro,-22.029,-42.361
1759,1,330160,Duas Barras,-22.051,-42.522
1760,32,330170,Duque de Caxias,-22.786,-43.312
1761,11,330190,Itaboraí,-22.744,-42.859
1762,2,330200,Itaguaí,-22.852,-43.775
1763,2,330210,Itaocara,-21.679,-42.082
1764,9,330220,Itaperuna,-21.205,-41.888
1765,1,330225,Itatiaia,-22.496,-44.563
1766,4,330227,Japeri,-22.643,-43.653
1767,1,330230,Laje do Muriaé,-21.206,-42.123
1768,12,330240,Macaé,-22.371,-41.787
1769,1,330245,Macuco,-21.984,-42.253
1770,12,330250,Magé,-22.653,-43.041
1771,1,330260,Mangaratiba,-22.96,-44.041
1772,5,330270,Maricá,-22.919,-42.819
1773,3,330280,Mendes,-22.527,-43.733
1774,6,330285,Mesquita,-22.782,-43.429
1775,5,330290,Miguel Pereira,-22.454,-43.469
1776,1,330310,Natividade,-21.042,-41.973
1777,7,330320,Nilópolis,-22.808,-43.414
1778,43,330330,Niterói,-22.883,-43.104
1779,13,330340,Nova Friburgo,-22.282,-42.531
1780,15,330350,Nova Iguaçu,-22.759,-43.451
1781,2,330380,Parati,-23.218,-44.713
1782,1,330385,Paty do Alferes,-22.429,-43.419
1783,19,330390,Petrópolis,-22.505,-43.179
1784,3,330395,Pinheiral,-22.513,-44.001
1785,2,330400,Piraí,-22.629,-43.898
1786,1,330411,Porto Real,-22.42,-44.29
1787,1,330414,Queimados,-22.716,-43.555
1788,7,330420,Resende,-22.469,-44.447
1789,3,330430,Rio Bonito,-22.708,-42.626
1790,2,330440,Rio Claro,-22.723,-44.136
1791,1,330450,Rio das Flores,-22.168,-43.586
1792,2,330452,Rio das Ostras,-22.527,-41.945
1793,288,330455,Rio de Janeiro,-22.903,-43.208
1794,1,330470,Santo Antônio de Pádua,-21.539,-42.18
1795,3,330475,São Francisco de Itabapoana,-21.47,-41.119
1796,4,330480,São Fidélis,-21.646,-41.747
1797,21,330490,São Gonçalo,-22.827,-43.054
1798,2,330500,São João da Barra,-21.64,-41.051
1799,6,330510,São João de Meriti,-22.804,-43.372
1800,1,330513,São José de Ubá,-21.358,-41.943
1801,2,330515,São José do Vale do Rio Preto,-22.151,-42.924
1802,2,330520,São Pedro da Aldeia,-22.839,-42.103
1803,4,330550,Saquarema,-22.92,-42.51
1804,1,330555,Seropédica,-22.744,-43.708
1805,1,330560,Silva Jardim,-22.651,-42.392
1806,2,330570,Sumidouro,-22.05,-42.675
1807,10,330580,Teresópolis,-22.412,-42.966
1808,1,330590,Trajano de Morais,-22.063,-42.066
1809,4,330600,Três Rios,-22.117,-43.209
1810,1,330610,Valença,-22.246,-43.7
1811,2,330620,Vassouras,-22.404,-43.663
1812,10,330630,Volta Redonda,-22.523,-44.104
1813,2,350010,Adamantina,-21.685,-51.073
1814,4,350030,Aguaí,-22.059,-46.979
1815,2,350040,Águas da Prata,-21.937,-46.717
1816,4,350050,Águas de Lindóia,-22.476,-46.633
1817,1,350055,Águas de Santa Bárbara,-22.881,-49.239
1818,4,350070,Agudos,-22.469,-48.988
1819,1,350080,Alfredo Marcondes,-21.955,-51.413
1820,1,350090,Altair,-20.524,-49.059
1821,3,350100,Altinópolis,-21.026,-47.374
1822,1,350120,Álvares Florence,-20.321,-49.911
1823,1,350140,Álvaro de Carvalho,-22.089,-49.719
1824,19,350160,Americana,-22.739,-47.331
1825,3,350170,Américo Brasiliense,-21.724,-48.102
1826,7,350190,Amparo,-22.701,-46.764
1827,2,350200,Analândia,-22.126,-47.663
1828,3,350210,Andradina,-20.896,-51.379
1829,3,350220,Angatuba,-23.49,-48.413
1830,1,350230,Anhembi,-22.789,-48.127
1831,2,350275,Araçariguama,-23.439,-47.061
1832,9,350280,Araçatuba,-21.209,-50.433
1833,2,350290,Araçoiaba da Serra,-23.505,-47.614
1834,2,350310,Arandu,-23.134,-49.054
1835,1,350315,Arapeí,-22.674,-44.448
1836,13,350320,Araraquara,-21.794,-48.176
1837,7,350330,Araras,-22.357,-47.384
1838,3,350360,Areiópolis,-22.668,-48.665
1839,1,350380,Artur Nogueira,-22.573,-47.173
1840,5,350390,Arujá,-23.396,-46.321
1841,10,350400,Assis,-22.662,-50.412
1842,11,350410,Atibaia,-23.117,-46.55
1843,3,350420,Auriflama,-20.686,-50.555
1844,10,350450,Avaré,-23.099,-48.926
1845,1,350460,Bady Bassitt,-20.918,-49.445
1846,1,350480,Bálsamo,-20.735,-49.584
1847,1,350490,Bananal,-22.684,-44.323
1848,1,350500,Barão de Antonina,-23.627,-49.561
1849,2,350520,Bariri,-22.074,-48.74
1850,4,350530,Barra Bonita,-22.495,-48.558
1851,10,350550,Barretos,-20.557,-48.568
1852,3,350560,Barrinha,-21.194,-48.164
1853,11,350570,Barueri,-23.511,-46.876
1854,7,350590,Batatais,-20.891,-47.585
1855,31,350600,Bauru,-22.315,-49.061
1856,5,350610,Bebedouro,-20.949,-48.479
1857,1,350620,Bento de Abreu,-21.271,-50.812
1858,1,350630,Bernardino de Campos,-23.013,-49.474
1859,5,350635,Bertioga,-23.854,-46.139
1860,1,350640,Bilac,-21.403,-50.471
1861,4,350650,Birigui,-21.289,-50.34
1862,3,350660,Biritiba-Mirim,-23.573,-46.039
1863,2,350680,Bocaina,-22.136,-48.518
1864,3,350690,Bofete,-23.102,-48.258
1865,5,350700,Boituva,-23.283,-47.672
1866,2,350710,Bom Jesus dos Perdões,-23.135,-46.465
1867,1,350730,Boracéia,-22.193,-48.779
1868,2,350740,Borborema,-21.62,-49.074
1869,14,350750,Botucatu,-22.886,-48.445
1870,9,350760,Bragança Paulista,-22.952,-46.542
1871,1,350790,Brotas,-22.284,-48.127
1872,4,350800,Buri,-23.798,-48.593
1873,1,350810,Buritama,-21.066,-50.147
1874,1,350830,Cabrália Paulista,-22.456,-49.338
1875,1,350840,Cabreúva,-23.308,-47.133
1876,3,350850,Caçapava,-23.101,-45.707
1877,5,350860,Cachoeira Paulista,-22.665,-45.009
1878,1,350870,Caconde,-21.529,-46.644
1879,3,350880,Cafelândia,-21.803,-49.61
1880,3,350900,Caieiras,-23.364,-46.741
1881,3,350920,Cajamar,-23.356,-46.877
1882,1,350930,Cajobi,-20.88,-48.809
1883,1,350940,Cajuru,-21.275,-47.304
1884,71,350950,Campinas,-22.906,-47.061
1885,4,350960,Campo Limpo Paulista,-23.206,-46.784
1886,4,350970,Campos do Jordão,-22.739,-45.591
1887,1,350990,Cananéia,-25.015,-47.927
1888,2,351000,Cândido Mota,-22.746,-50.387
1889,7,351020,Capão Bonito,-24.006,-48.349
1890,5,351030,Capela do Alto,-23.471,-47.735
1891,3,351040,Capivari,-22.995,-47.508
1892,7,351050,Caraguatatuba,-23.62,-45.413
1893,18,351060,Carapicuíba,-23.523,-46.836
1894,1,351070,Cardoso,-20.082,-49.914
1895,2,351080,Casa Branca,-21.774,-47.086
1896,1,351090,Cássia dos Coqueiros,-21.283,-47.17
1897,7,351110,Catanduva,-21.138,-48.973
1898,1,351140,Cerqueira César,-23.036,-49.166
1899,4,351150,Cerquilho,-23.165,-47.744
1900,4,351160,Cesário Lange,-23.227,-47.953
1901,2,351200,Colina,-20.713,-48.541
1902,1,351210,Colômbia,-20.176,-48.689
1903,1,351220,Conchal,-22.33,-47.173
1904,1,351230,Conchas,-23.015,-48.011
1905,1,351240,Cordeirópolis,-22.482,-47.457
1906,5,351280,Cosmópolis,-22.646,-47.196
1907,10,351300,Cotia,-23.604,-46.919
1908,5,351310,Cravinhos,-21.34,-47.729
1909,2,351320,Cristais Paulista,-20.397,-47.42
1910,6,351340,Cruzeiro,-22.576,-44.963
1911,3,351350,Cubatão,-23.895,-46.425
1912,2,351370,Descalvado,-21.904,-47.619
1913,19,351380,Diadema,-23.686,-46.623
1914,1,351390,Divinolândia,-21.661,-46.739
1915,6,351410,Dois Córregos,-22.366,-48.38
1916,1,351430,Dourado,-22.1,-48.318
1917,4,351440,Dracena,-21.483,-51.533
1918,1,351460,Dumont,-21.236,-47.973
1919,2,351470,Echaporã,-22.429,-50.201
1920,1,351480,Eldorado,-24.52,-48.108
1921,1,351490,Elias Fausto,-23.043,-47.374
1922,10,351500,Embu,-23.649,-46.852
1923,1,351512,Emilianópolis,-21.833,-51.483
1924,2,351515,Engenheiro Coelho,-22.488,-47.215
1925,5,351518,Espírito Santo do Pinhal,-22.191,-46.741
1926,1,351519,Espírito Santo do Turvo,-22.692,-49.43
1927,2,351540,Fartura,-23.388,-49.51
1928,10,351550,Fernandópolis,-20.284,-50.246
1929,9,351570,Ferraz de Vasconcelos,-23.541,-46.369
1930,1,351580,Flora Rica,-21.676,-51.384
1931,1,351600,Flórida Paulista,-21.615,-51.174
1932,1,351610,Florínia,-22.903,-50.738
1933,17,351620,Franca,-20.539,-47.401
1934,9,351630,Francisco Morato,-23.282,-46.745
1935,7,351640,Franco da Rocha,-23.322,-46.727
1936,8,351670,Garça,-22.211,-49.656
1937,1,351720,Guaiçara,-21.622,-49.799
1938,2,351740,Guaíra,-20.318,-48.311
1939,3,351770,Guará,-20.428,-47.824
1940,2,351790,Guaraci,-20.499,-48.945
1941,6,351820,Guararapes,-21.261,-50.643
1942,8,351840,Guaratinguetá,-22.816,-45.193
1943,1,351850,Guareí,-23.373,-48.184
1944,3,351860,Guariba,-21.36,-48.228
1945,20,351870,Guarujá,-23.993,-46.256
1946,77,351880,Guarulhos,-23.463,-46.533
1947,1,351885,Guatapará,-21.497,-48.038
1948,20,351907,Hortolândia,-22.858,-47.22
1949,3,351910,Iacanga,-21.89,-49.025
1950,1,351930,Ibaté,-21.955,-47.997
1951,6,351960,Ibitinga,-21.758,-48.829
1952,8,351970,Ibiúna,-23.656,-47.223
1953,1,351980,Icém,-20.342,-49.195
1954,1,352000,Igaraçu do Tietê,-22.509,-48.558
1955,6,352010,Igarapava,-20.038,-47.747
1956,3,352020,Igaratá,-23.204,-46.156
1957,2,352040,Ilhabela,-23.778,-45.358
1958,1,352044,Ilha Solteira,-20.433,-51.343
1959,12,352050,Indaiatuba,-23.09,-47.218
1960,1,352100,Iperó,-23.35,-47.689
1961,2,352110,Ipeúna,-22.436,-47.719
1962,3,352130,Ipuã,-20.438,-48.012
1963,2,352140,Iracemápolis,-22.581,-47.519
1964,1,352170,Itaberá,-23.862,-49.137
1965,3,352180,Itaí,-23.418,-49.091
1966,1,352190,Itajobi,-21.318,-49.054
1967,10,352210,Itanhaém,-24.183,-46.789
1968,2,352220,Itapecerica da Serra,-23.717,-46.849
1969,10,352230,Itapetininga,-23.592,-48.053
1970,5,352240,Itapeva,-23.982,-48.876
1971,15,352250,Itapevi,-23.549,-46.934
1972,5,352260,Itapira,-22.436,-46.822
1973,4,352270,Itápolis,-21.596,-48.813
1974,3,352290,Itapuí,-22.233,-48.719
1975,1,352300,Itapura,-20.646,-51.509
1976,7,352310,Itaquaquecetuba,-23.486,-46.348
1977,7,352320,Itararé,-24.115,-49.341
1978,7,352340,Itatiba,-23.006,-46.839
1979,1,352350,Itatinga,-23.102,-48.616
1980,1,352360,Itirapina,-22.253,-47.823
1981,5,352390,Itu,-23.264,-47.299
1982,4,352400,Itupeva,-23.153,-47.058
1983,1,352420,Jaborandi,-20.688,-48.413
1984,5,352430,Jaboticabal,-21.255,-48.322
1985,8,352440,Jacareí,-23.305,-45.966
1986,2,352450,Jaci,-20.882,-49.57
1987,2,352460,Jacupiranga,-24.693,-48.002
1988,2,352470,Jaguariúna,-22.706,-46.986
1989,7,352480,Jales,-20.269,-50.546
1990,1,352490,Jambeiro,-23.254,-45.688
1991,3,352500,Jandira,-23.528,-46.903
1992,6,352520,Jarinu,-23.101,-46.728
1993,7,352530,Jaú,-22.296,-48.558
1994,1,352570,José Bonifácio,-21.053,-49.688
1995,1,352580,Júlio Mesquita,-22.009,-49.787
1996,25,352590,Jundiaí,-23.186,-46.884
1997,1,352600,Junqueirópolis,-21.515,-51.434
1998,3,352610,Juquiá,-24.321,-47.635
1999,1,352620,Juquitiba,-23.932,-47.068
2000,2,352640,Laranjal Paulista,-23.05,-47.837
2001,1,352650,Lavínia,-21.168,-51.04
2002,1,352660,Lavrinhas,-22.571,-44.902
2003,8,352670,Leme,-22.186,-47.39
2004,2,352680,Lençóis Paulista,-22.599,-48.8
2005,19,352690,Limeira,-22.565,-47.402
2006,6,352710,Lins,-21.679,-49.743
2007,4,352720,Lorena,-22.731,-45.125
2008,3,352730,Louveira,-23.086,-46.951
2009,1,352750,Lucianópolis,-22.431,-49.523
2010,2,352770,Luiziânia,-21.676,-50.327
2011,2,352800,Macatuba,-22.502,-48.711
2012,1,352810,Macaubal,-20.806,-49.964
2013,3,352840,Mairinque,-23.546,-47.183
2014,3,352850,Mairiporã,-23.319,-46.587
2015,1,352860,Manduri,-23.003,-49.322
2016,1,352880,Maracaí,-22.611,-50.667
2017,1,352890,Mariápolis,-21.799,-51.181
2018,18,352900,Marília,-22.214,-49.946
2019,1,352920,Martinópolis,-22.146,-51.171
2020,6,352930,Matão,-21.603,-48.366
2021,9,352940,Mauá,-23.668,-46.461
2022,1,352950,Mendonça,-21.167,-49.581
2023,1,352960,Meridiano,-20.359,-50.173
2024,2,352970,Miguelópolis,-20.179,-48.032
2025,4,352980,Mineiros do Tietê,-22.409,-48.451
2026,2,352990,Miracatu,-24.281,-47.46
2027,1,353000,Mira Estrela,-19.979,-50.137
2028,2,353010,Mirandópolis,-21.134,-51.102
2029,2,353020,Mirante do Paranapanema,-22.292,-51.906
2030,2,353030,Mirassol,-20.819,-49.521
2031,5,353050,Mococa,-21.468,-47.005
2032,20,353060,Mogi das Cruzes,-23.523,-46.188
2033,19,353070,Mogi Guaçu,-22.372,-46.942
2034,5,353080,Moji Mirim,-22.432,-46.958
2035,6,353110,Mongaguá,-24.087,-46.629
2036,1,353120,Monte Alegre do Sul,-22.682,-46.681
2037,5,353130,Monte Alto,-21.261,-48.496
2038,2,353140,Monte Aprazível,-20.773,-49.714
2039,2,353150,Monte Azul Paulista,-20.907,-48.641
2040,1,353170,Monteiro Lobato,-22.957,-45.84
2041,5,353180,Monte Mor,-22.947,-47.316
2042,1,353200,Morungaba,-22.88,-46.792
2043,1,353215,Nantes,-22.621,-51.237
2044,1,353220,Narandiba,-22.407,-51.524
2045,1,353240,Nazaré Paulista,-23.181,-46.395
2046,1,353260,Nhandeara,-20.694,-50.038
2047,1,353280,Nova Aliança,-21.016,-49.496
2048,3,353340,Nova Odessa,-22.778,-47.296
2049,3,353350,Novo Horizonte,-21.468,-49.221
2050,1,353360,Nuporanga,-20.73,-47.749
2051,3,353390,Olímpia,-20.737,-48.915
2052,2,353430,Orlândia,-20.72,-47.887
2053,25,353440,Osasco,-23.533,-46.792
2054,1,353450,Oscar Bressane,-22.318,-50.281
2055,1,353460,Osvaldo Cruz,-21.797,-50.89
2056,11,353470,Ourinhos,-22.979,-49.871
2057,2,353475,Ouroeste,-20.001,-50.372
2058,1,353490,Pacaembu,-21.562,-51.261
2059,2,353510,Palmares Paulista,-21.083,-48.801
2060,2,353520,Palmeira d'Oeste,-20.416,-50.762
2061,1,353540,Panorama,-21.356,-51.86
2062,3,353550,Paraguaçu Paulista,-22.413,-50.576
2063,1,353560,Paraibuna,-23.386,-45.662
2064,1,353570,Paraíso,-21.016,-48.774
2065,4,353580,Paranapanema,-23.389,-48.723
2066,1,353610,Pardinho,-23.081,-48.374
2067,1,353620,Pariquera-Açu,-24.715,-47.881
2068,5,353650,Paulínia,-22.761,-47.154
2069,2,353670,Pederneiras,-22.352,-48.775
2070,3,353710,Pedreira,-22.742,-46.901
2071,1,353715,Pedrinhas Paulista,-22.815,-50.794
2072,7,353730,Penápolis,-21.42,-50.078
2073,2,353740,Pereira Barreto,-20.638,-51.109
2074,3,353750,Pereiras,-23.076,-47.976
2075,5,353760,Peruíbe,-24.32,-46.998
2076,5,353780,Piedade,-23.712,-47.428
2077,2,353790,Pilar do Sul,-23.813,-47.716
2078,11,353800,Pindamonhangaba,-22.924,-45.462
2079,1,353820,Pinhalzinho,-22.779,-46.591
2080,5,353860,Piracaia,-23.054,-46.358
2081,25,353870,Piracicaba,-22.725,-47.649
2082,2,353880,Piraju,-23.194,-49.384
2083,2,353890,Pirajuí,-21.999,-49.457
2084,1,353920,Pirapozinho,-22.275,-51.5
2085,5,353930,Pirassununga,-21.996,-47.426
2086,1,353940,Piratininga,-22.413,-49.135
2087,1,353950,Pitangueiras,-21.009,-48.222
2088,6,353980,Poá,-23.528,-46.345
2089,2,354000,Pompéia,-22.109,-50.172
2090,4,354020,Pontal,-21.023,-48.037
2091,6,354060,Porto Feliz,-23.215,-47.524
2092,5,354070,Porto Ferreira,-21.854,-47.479
2093,2,354075,Potim,-22.843,-45.251
2094,3,354080,Potirendaba,-21.043,-49.377
2095,1,354085,Pracinha,-21.851,-51.087
2096,21,354100,Praia Grande,-24.006,-46.403
2097,1,354120,Presidente Bernardes,-22.006,-51.553
2098,2,354130,Presidente Epitácio,-21.763,-52.116
2099,12,354140,Presidente Prudente,-22.126,-51.389
2100,4,354150,Presidente Venceslau,-21.876,-51.844
2101,6,354160,Promissão,-21.537,-49.858
2102,1,354200,Quintana,-22.073,-50.308
2103,1,354210,Rafard,-23.012,-47.527
2104,4,354220,Rancharia,-22.229,-50.893
2105,3,354240,Regente Feijó,-22.221,-51.303
2106,1,354250,Reginópolis,-21.888,-49.225
2107,4,354260,Registro,-24.488,-47.844
2108,1,354270,Restinga,-20.603,-47.483
2109,2,354310,Ribeirão Corrente,-20.457,-47.59
2110,4,354325,Ribeirão Grande,-24.099,-48.365
2111,2,354330,Ribeirão Pires,-23.711,-46.413
2112,46,354340,Ribeirão Preto,-21.178,-47.81
2113,2,354350,Riversul,-23.828,-49.429
2114,13,354390,Rio Claro,-22.411,-47.561
2115,1,354400,Rio das Pedras,-22.843,-47.606
2116,1,354410,Rio Grande da Serra,-23.744,-46.398
2117,3,354420,Riolândia,-19.99,-49.681
2118,1,354430,Roseira,-22.898,-45.305
2119,2,354460,Sabino,-21.46,-49.578
2120,2,354470,Sagres,-21.884,-50.956
2121,1,354480,Sales,-21.341,-49.485
2122,1,354490,Sales Oliveira,-20.772,-47.838
2123,2,354500,Salesópolis,-23.532,-45.846
2124,8,354520,Salto,-23.201,-47.287
2125,3,354530,Salto de Pirapora,-23.649,-47.573
2126,9,354580,Santa Bárbara d'Oeste,-22.754,-47.414
2127,3,354600,Santa Branca,-23.397,-45.884
2128,1,354620,Santa Cruz da Conceição,-22.14,-47.452
2129,3,354630,Santa Cruz das Palmeiras,-21.827,-47.249
2130,4,354640,Santa Cruz do Rio Pardo,-22.899,-49.633
2131,1,354650,Santa Ernestina,-21.463,-48.391
2132,3,354660,Santa Fé do Sul,-20.211,-50.926
2133,2,354670,Santa Gertrudes,-22.457,-47.53
2134,2,354680,Santa Isabel,-23.316,-46.221
2135,1,354690,Santa Lúcia,-21.685,-48.084
2136,1,354710,Santa Mercedes,-21.351,-51.755
2137,8,354730,Santana de Parnaíba,-23.444,-46.918
2138,5,354760,Santa Rosa de Viterbo,-21.473,-47.363
2139,3,354770,Santo Anastácio,-21.977,-51.652
2140,19,354780,Santo André,-23.664,-46.538
2141,1,354790,Santo Antônio da Alegria,-21.087,-47.151
2142,2,354800,Santo Antônio de Posse,-22.606,-46.919
2143,1,354805,Santo Antônio do Aracanguá,-20.937,-50.496
2144,13,354850,Santos,-23.961,-46.334
2145,2,354860,São Bento do Sapucaí,-22.689,-45.731
2146,35,354870,São Bernardo do Campo,-23.694,-46.565
2147,5,354880,São Caetano do Sul,-23.623,-46.551
2148,15,354890,São Carlos,-22.018,-47.891
2149,10,354910,São João da Boa Vista,-21.969,-46.798
2150,2,354940,São Joaquim da Barra,-20.581,-47.855
2151,1,354950,São José da Bela Vista,-20.593,-47.64
2152,5,354970,São José do Rio Pardo,-21.596,-46.889
2153,30,354980,São José do Rio Preto,-20.82,-49.379
2154,29,354990,São José dos Campos,-23.179,-45.887
2155,10,355010,São Manuel,-22.731,-48.571
2156,3,355020,São Miguel Arcanjo,-23.878,-47.997
2157,212,355030,São Paulo,-23.548,-46.636
2158,4,355040,São Pedro,-22.549,-47.914
2159,1,355050,São Pedro do Turvo,-22.747,-49.74
2160,3,355060,São Roque,-23.529,-47.135
2161,5,355070,São Sebastião,-23.76,-45.41
2162,3,355090,São Simão,-21.479,-47.551
2163,26,355100,São Vicente,-23.963,-46.392
2164,3,355150,Serrana,-21.211,-47.596
2165,1,355160,Serra Negra,-22.612,-46.701
2166,9,355170,Sertãozinho,-21.138,-47.99
2167,2,355190,Severínia,-20.809,-48.803
2168,1,355200,Silveiras,-22.664,-44.853
2169,3,355210,Socorro,-22.591,-46.529
2170,42,355220,Sorocaba,-23.502,-47.458
2171,14,355240,Sumaré,-22.822,-47.267
2172,9,355250,Suzano,-23.543,-46.311
2173,2,355260,Tabapuã,-20.964,-49.032
2174,3,355270,Tabatinga,-21.717,-48.688
2175,8,355280,Taboão da Serra,-23.602,-46.753
2176,1,355330,Tambaú,-21.705,-47.274
2177,4,355340,Tanabi,-20.626,-49.649
2178,1,355350,Tapiraí,-23.964,-47.507
2179,2,355360,Tapiratiba,-21.468,-46.749
2180,6,355370,Taquaritinga,-21.406,-48.505
2181,5,355380,Taquarituba,-23.533,-49.244
2182,2,355395,Tarumã,-22.747,-50.577
2183,10,355400,Tatuí,-23.356,-47.857
2184,20,355410,Taubaté,-23.026,-45.555
2185,1,355420,Tejupá,-23.343,-49.376
2186,1,355430,Teodoro Sampaio,-22.533,-52.168
2187,2,355440,Terra Roxa,-20.789,-48.33
2188,4,355450,Tietê,-23.102,-47.715
2189,1,355460,Timburi,-23.205,-49.607
2190,1,355480,Tremembé,-22.958,-45.549
2191,7,355500,Tupã,-21.935,-50.514
2192,1,355510,Tupi Paulista,-21.381,-51.571
2193,9,355540,Ubatuba,-23.434,-45.071
2194,2,355580,Urânia,-20.246,-50.643
2195,1,355600,Urupês,-21.202,-49.29
2196,1,355610,Valentim Gentil,-20.422,-50.088
2197,8,355620,Valinhos,-22.971,-46.996
2198,1,355630,Valparaíso,-21.228,-50.868
2199,4,355640,Vargem Grande do Sul,-21.832,-46.894
2200,2,355645,Vargem Grande Paulista,-23.603,-47.026
2201,10,355650,Várzea Paulista,-23.211,-46.828
2202,1,355670,Vinhedo,-23.03,-46.975
2203,5,355700,Votorantim,-23.547,-47.438
2204,3,355710,Votuporanga,-20.423,-49.973
2205,3,355720,Chavantes,-23.039,-49.709
2206,2,355730,Estiva Gerbi,-22.271,-46.945
2207,3,410010,Abatiá,-23.304,-50.313
2208,8,410040,Almirante Tamandaré,-25.325,-49.31
2209,1,410050,Altônia,-23.874,-53.902
2210,1,410070,Alto Piquiri,-24.028,-53.441
2211,2,410090,Amaporã,-23.096,-52.788
2212,2,410100,Ampére,-25.915,-53.473
2213,1,410110,Andirá,-23.051,-50.229
2214,2,410120,Antonina,-25.429,-48.712
2215,1,410130,Antônio Olinto,-25.986,-50.197
2216,12,410140,Apucarana,-23.551,-51.461
2217,9,410150,Arapongas,-23.419,-51.424
2218,1,410160,Arapoti,-24.158,-49.827
2219,1,410165,Arapuã,-24.316,-51.787
2220,9,410180,Araucária,-25.593,-49.41
2221,1,410185,Ariranha do Ivaí,-24.386,-51.585
2222,2,410190,Assaí,-23.373,-50.841
2223,4,410200,Assis Chateaubriand,-24.42,-53.521
2224,2,410210,Astorga,-23.233,-51.666
2225,1,410220,Atalaia,-23.151,-52.054
2226,3,410230,Balsa Nova,-25.584,-49.636
2227,2,410240,Bandeirantes,-23.11,-50.368
2228,1,410260,Barracão,-26.254,-53.633
2229,1,410315,Bom Jesus do Sul,-26.193,-53.597
2230,1,410335,Braganey,-24.816,-53.122
2231,1,410337,Brasilândia do Sul,-24.197,-53.525
2232,4,410345,Cafelândia,-24.618,-53.32
2233,3,410350,Califórnia,-23.65,-51.355
2234,1,410360,Cambará,-23.046,-50.074
2235,4,410370,Cambé,-23.276,-51.278
2236,1,410380,Cambira,-23.583,-51.578
2237,1,410395,Campina do Simão,-25.079,-51.827
2238,3,410400,Campina Grande do Sul,-25.306,-49.055
2239,3,410410,Campo do Tenente,-25.978,-49.683
2240,7,410420,Campo Largo,-25.459,-49.528
2241,2,410425,Campo Magro,-25.369,-49.451
2242,10,410430,Campo Mourão,-24.046,-52.383
2243,1,410440,Cândido de Abreu,-24.567,-51.333
2244,2,410442,Candói,-25.663,-52.126
2245,4,410445,Cantagalo,-25.374,-52.126
2246,1,410450,Capanema,-25.672,-53.809
2247,4,410460,Capitão Leônidas Marques,-25.479,-53.614
2248,1,410465,Carambeí,-24.918,-50.097
2249,1,410470,Carlópolis,-23.425,-49.721
2250,26,410480,Cascavel,-24.956,-53.455
2251,1,410490,Castro,-24.791,-50.012
2252,1,410500,Catanduvas,-25.203,-53.157
2253,2,410520,Cerro Azul,-24.824,-49.261
2254,4,410540,Chopinzinho,-25.856,-52.523
2255,8,410550,Cianorte,-23.663,-52.605
2256,1,410560,Cidade Gaúcha,-23.38,-52.945
2257,1,410570,Clevelândia,-26.396,-52.471
2258,17,410580,Colombo,-25.292,-49.224
2259,2,410590,Colorado,-22.838,-51.973
2260,1,410600,Congonhinhas,-23.551,-50.554
2261,1,410610,Conselheiro Mairinck,-23.63,-50.169
2262,1,410620,Contenda,-25.676,-49.535
2263,2,410630,Corbélia,-24.799,-53.307
2264,4,410640,Cornélio Procópio,-23.181,-50.647
2265,1,410645,Coronel Domingos Soares,-26.228,-52.032
2266,4,410650,Coronel Vivida,-25.98,-52.568
2267,1,410657,Cruzeiro do Iguaçu,-25.616,-53.128
2268,3,410660,Cruzeiro do Oeste,-23.785,-53.073
2269,2,410680,Cruz Machado,-26.017,-51.347
2270,142,410690,Curitiba,-25.428,-49.273
2271,1,410700,Curiúva,-24.033,-50.458
2272,3,410720,Dois Vizinhos,-25.734,-53.057
2273,1,410725,Douradina,-23.381,-53.292
2274,1,410750,Engenheiro Beltrão,-23.797,-52.269
2275,1,410753,Entre Rios do Oeste,-24.704,-54.234
2276,1,410754,Espigão Alto do Iguaçu,-25.424,-52.836
2277,6,410760,Faxinal,-24.001,-51.32
2278,13,410765,Fazenda Rio Grande,-25.658,-49.308
2279,1,410773,Fernandes Pinheiro,-25.413,-50.548
2280,2,410785,Flor da Serra do Sul,-26.257,-53.307
2281,1,410790,Floresta,-23.599,-52.081
2282,15,410830,Foz do Iguaçu,-25.548,-54.588
2283,1,410832,Francisco Alves,-24.066,-53.848
2284,12,410840,Francisco Beltrão,-26.081,-53.055
2285,1,410855,Godoy Moreira,-24.177,-51.924
2286,3,410860,Goioerê,-24.185,-53.028
2287,1,410865,Goioxim,-25.195,-51.993
2288,1,410870,Grandes Rios,-24.146,-51.506
2289,9,410880,Guaíra,-24.08,-54.256
2290,1,410900,Guapirama,-23.516,-50.04
2291,9,410940,Guarapuava,-25.395,-51.458
2292,1,410960,Guaratuba,-25.883,-48.575
2293,2,410970,Ibaiti,-23.849,-50.188
2294,2,410975,Ibema,-25.106,-53.012
2295,3,410980,Ibiporã,-23.269,-51.048
2296,1,411000,Iguaraçu,-23.197,-51.828
2297,3,411010,Imbituva,-25.23,-50.604
2298,1,411020,Inácio Martins,-25.571,-51.079
2299,2,411070,Irati,-25.467,-50.651
2300,1,411080,Iretama,-24.424,-52.106
2301,1,411090,Itaguajé,-22.618,-51.966
2302,1,411100,Itambaracá,-23.018,-50.406
2303,1,411120,Itapejara d'Oeste,-25.965,-52.816
2304,3,411150,Ivaiporã,-24.248,-51.685
2305,1,411155,Ivaté,-23.409,-53.369
2306,1,411170,Jaboti,-23.743,-50.076
2307,1,411180,Jacarezinho,-23.161,-49.969
2308,2,411190,Jaguapitã,-23.113,-51.532
2309,4,411210,Jandaia do Sul,-23.603,-51.643
2310,2,411230,Japira,-23.813,-50.139
2311,1,411250,Jardim Alegre,-24.179,-51.692
2312,1,411260,Jardim Olinda,-22.549,-52.061
2313,3,411270,Jataizinho,-23.254,-50.98
2314,1,411275,Jesuítas,-24.385,-53.388
2315,1,411280,Joaquim Távora,-23.499,-49.905
2316,1,411310,Kaloré,-23.817,-51.668
2317,2,411320,Lapa,-25.77,-49.716
2318,6,411330,Laranjeiras do Sul,-25.408,-52.416
2319,1,411342,Lidianópolis,-24.109,-51.653
2320,2,411350,Loanda,-22.923,-53.137
2321,28,411370,Londrina,-23.31,-51.163
2322,2,411373,Luiziana,-24.286,-52.276
2323,1,411390,Mallet,-25.878,-50.821
2324,1,411400,Mamborê,-24.319,-52.53
2325,2,411410,Mandaguaçu,-23.347,-52.095
2326,5,411420,Mandaguari,-23.548,-51.671
2327,2,411430,Mandirituba,-25.779,-49.326
2328,2,411435,Manfrinópolis,-26.144,-53.311
2329,1,411440,Mangueirinha,-25.941,-52.176
2330,2,411450,Manoel Ribas,-24.516,-51.668
2331,8,411460,Marechal Cândido Rondon,-24.556,-54.057
2332,3,411470,Maria Helena,-23.616,-53.205
2333,4,411480,Marialva,-23.485,-51.792
2334,2,411490,Marilândia do Sul,-23.745,-51.308
2335,3,411510,Mariluz,-24.002,-53.146
2336,33,411520,Maringá,-23.425,-51.939
2337,4,411530,Mariópolis,-26.355,-52.559
2338,2,411540,Marmeleiro,-26.149,-53.026
2339,1,411550,Marumbi,-23.706,-51.639
2340,1,411560,Matelândia,-25.241,-53.996
2341,2,411570,Matinhos,-25.818,-48.543
2342,6,411580,Medianeira,-25.295,-54.094
2343,1,411610,Moreira Sales,-24.062,-53.007
2344,2,411620,Morretes,-25.477,-48.834
2345,2,411640,Nossa Senhora das Graças,-22.914,-51.794
2346,3,411670,Nova Aurora,-24.529,-53.256
2347,2,411690,Nova Esperança,-23.184,-52.205
2348,2,411695,Nova Esperança do Sudoeste,-25.907,-53.263
2349,1,411705,Nova Laranjeiras,-25.307,-52.541
2350,1,411710,Nova Londrina,-22.766,-52.985
2351,2,411722,Nova Santa Rosa,-24.466,-53.953
2352,2,411725,Nova Prata do Iguaçu,-25.633,-53.347
2353,1,411740,Ourizona,-23.405,-52.199
2354,1,411745,Ouro Verde do Oeste,-24.805,-53.903
2355,5,411760,Palmas,-26.484,-51.991
2356,2,411770,Palmeira,-25.429,-50.006
2357,4,411780,Palmital,-24.893,-52.203
2358,1,411790,Palotina,-24.284,-53.84
2359,1,411800,Paraíso do Norte,-23.281,-52.602
2360,4,411820,Paranaguá,-25.52,-48.509
2361,11,411840,Paranavaí,-23.073,-52.465
2362,2,411845,Pato Bragado,-24.626,-54.225
2363,9,411850,Pato Branco,-26.229,-52.671
2364,1,411870,Paulo Frontin,-26.04,-50.836
2365,2,411880,Peabiru,-23.913,-52.343
2366,1,411885,Perobal,-23.896,-53.41
2367,1,411890,Pérola,-23.805,-53.684
2368,2,411900,Pérola d'Oeste,-25.824,-53.74
2369,1,411910,Piên,-26.098,-49.429
2370,7,411915,Pinhais,-25.445,-49.193
2371,1,411920,Pinhalão,-23.793,-50.056
2372,1,411925,Pinhal de São Bento,-26.03,-53.483
2373,4,411930,Pinhão,-25.696,-51.66
2374,1,411940,Piraí do Sul,-24.526,-49.949
2375,12,411950,Piraquara,-25.442,-49.063
2376,2,411960,Pitanga,-24.757,-51.761
2377,3,411980,Planalto,-25.716,-53.766
2378,8,411990,Ponta Grossa,-25.095,-50.162
2379,1,411995,Pontal do Paraná,-25.674,-48.511
2380,1,412030,Porto Vitória,-26.161,-51.232
2381,1,412033,Prado Ferreira,-23.039,-51.442
2382,1,412035,Pranchita,-26.02,-53.74
2383,1,412040,Presidente Castelo Branco,-23.278,-52.152
2384,1,412050,Primeiro de Maio,-22.851,-51.028
2385,3,412060,Prudentópolis,-25.213,-50.978
2386,1,412080,Quatro Barras,-25.366,-49.077
2387,1,412085,Quatro Pontes,-24.575,-53.977
2388,5,412090,Quedas do Iguaçu,-25.45,-52.908
2389,1,412100,Querência do Norte,-23.084,-53.484
2390,3,412120,Quitandinha,-25.872,-49.498
2391,1,412140,Realeza,-25.767,-53.527
2392,3,412160,Renascença,-26.158,-52.969
2393,4,412170,Reserva,-24.65,-50.851
2394,1,412175,Reserva do Iguaçu,-25.839,-52.028
2395,1,412180,Ribeirão Claro,-23.194,-49.758
2396,1,412190,Ribeirão do Pinhal,-23.408,-50.357
2397,1,412200,Rio Azul,-25.733,-50.796
2398,1,412210,Rio Bom,-23.762,-51.411
2399,4,412215,Rio Bonito do Iguaçu,-25.491,-52.526
2400,1,412220,Rio Branco do Sul,-25.19,-49.314
2401,6,412230,Rio Negro,-26.106,-49.798
2402,6,412240,Rolândia,-23.31,-51.369
2403,1,412250,Roncador,-24.603,-52.275
2404,2,412270,Sabáudia,-23.318,-51.553
2405,1,412290,Salto do Itararé,-23.601,-49.626
2406,1,412300,Salto do Lontra,-25.784,-53.309
2407,1,412310,Santa Amélia,-23.266,-50.424
2408,1,412330,Santa Cruz de Monte Castelo,-22.953,-53.297
2409,1,412340,Santa Fé,-23.038,-51.805
2410,1,412350,Santa Helena,-24.86,-54.333
2411,1,412370,Santa Isabel do Ivaí,-23.003,-53.197
2412,1,412380,Santa Izabel do Oeste,-25.821,-53.484
2413,1,412382,Santa Lúcia,-25.407,-53.566
2414,1,412385,Santa Maria do Oeste,-24.939,-51.863
2415,1,412395,Santa Mônica,-23.108,-53.109
2416,2,412400,Santana do Itararé,-23.755,-49.629
2417,2,412405,Santa Terezinha de Itaipu,-25.447,-54.401
2418,6,412410,Santo Antônio da Platina,-23.295,-50.077
2419,1,412440,Santo Antônio do Sudoeste,-26.07,-53.723
2420,1,412470,São Jerônimo da Serra,-23.728,-50.741
2421,5,412480,São João,-25.828,-52.725
2422,3,412500,São João do Ivaí,-23.98,-51.818
2423,1,412510,São João do Triunfo,-25.683,-50.297
2424,1,412520,São Jorge d'Oeste,-25.706,-52.918
2425,30,412550,São José dos Pinhais,-25.535,-49.206
2426,5,412560,São Mateus do Sul,-25.874,-50.383
2427,6,412570,São Miguel do Iguaçu,-25.348,-54.238
